     3.03           OBSERVATION DATA    M: Mixed            RINEX VERSION / TYPE
Geo++ RINEX Logger  Geo++               20190520 084908 UTC PGM / RUN BY / DATE
************************************************************COMMENT
This file was generated by the Geo++ RINEX Logger App       COMMENT
for Android devices (Version   2.1). If you encounter       COMMENT
any issues, please send an email to android@geopp.de        COMMENT
************************************************************COMMENT
Geo++                                                       MARKER NAME
GEODETIC                                                    MARKER TYPE
Geo++               Geo++                                   OBSERVER / AGENCY
unknown             Xiaomi              MI 8                REC # / TYPE / VERS
unknown             MI 8                                    ANT # / TYPE
3995138.2973 1385115.3636  4759467.0299                     APPROX POSITION XYZ
        0.0000        0.0000        0.0000                  ANTENNA: DELTA H/E/N
G    8 C1C L1C D1C S1C C5Q L5Q D5Q S5Q                      SYS / # / OBS TYPES
R    4 C1C L1C D1C S1C                                      SYS / # / OBS TYPES
E   12 C1B L1B D1B S1B C1C L1C D1C S1C C5Q L5Q D5Q S5Q      SYS / # / OBS TYPES
C    4 C2I L2I D2I S2I                                      SYS / # / OBS TYPES
J    8 C1C L1C D1C S1C C5Q L5Q D5Q S5Q                      SYS / # / OBS TYPES
  2019     5    20     8    49   26.9966500     GPS         TIME OF FIRST OBS
 24 R01  1 R02 -4 R03  5 R04  6 R05  1 R06 -4 R07  5 R08  6 GLONASS SLOT / FRQ #
    R09 -2 R10 -7 R11  0 R12 -1 R13 -2 R14 -7 R15  0 R16 -1 GLONASS SLOT / FRQ #
    R17  4 R18 -3 R19  3 R20  2 R21  4 R22 -3 R23  3 R24  2 GLONASS SLOT / FRQ #
G L1C                                                       SYS / PHASE SHIFT
G L5Q -0.25000                                              SYS / PHASE SHIFT
R L1C                                                       SYS / PHASE SHIFT
E L1B                                                       SYS / PHASE SHIFT
E L1C +0.50000                                              SYS / PHASE SHIFT
E L5Q -0.25000                                              SYS / PHASE SHIFT
C L2I                                                       SYS / PHASE SHIFT
J L1C                                                       SYS / PHASE SHIFT
J L5Q -0.25000                                              SYS / PHASE SHIFT
 C1C    0.000 C1P    0.000 C2C    0.000 C2P    0.000        GLONASS COD/PHS/BIS
                                                            END OF HEADER
> 2019  5 20  8 49 26.9999665  3  1
Geo++                                                       MARKER NAME
> 2019  5 20  8 49 26.9999665  0 24
C08  38569216.487   200840030.6261        493.901          30.420  
C11  22269252.317   115961839.7071        944.087          36.069  
C12  26089180.536                       -2962.516          26.131  
C13  38482098.897                        1354.491          17.829  
C23  22026058.877   114695467.8531       1052.299          39.936  
C25  22675903.699   118079380.3621      -1752.968          33.559  
E03                                                                  26049991.066   136893627.4601      -1961.016          31.608    26049982.372   102225725.7621      -1464.471          30.137  
E08                                                                                                                                  24681967.929    96857343.0531        354.432          29.522  
E11                                                                  24043789.531   126350966.9911       2789.090          28.553    24043801.223    94353039.4851       2082.725          28.592  
E12                                                                  23283299.407   122354563.8661        251.988          28.023    23283309.900                         187.708          20.487  
E25                                                                                                                                  22921146.520    89947501.1591        526.909          21.758  
G02  24211556.688   127232588.8281       2907.019          34.256  
G12  20338341.259   106878704.6061       1297.734          28.586  
G17  23643663.732   124248290.7351      -2871.675          33.865  
G19  21659584.182   113821882.6561      -2060.246          30.454  
G24                                                                  20359696.675    79895822.2501       -682.582          34.254  
G25  23058037.453   121170804.3821       3065.858          32.633    23058008.973    90484578.8201       2289.412          36.405  
G32                                                                  23683006.995    92937205.6211       1700.988          29.630  
R01  22514181.257   120351201.0961      -3004.028          26.652  
R02  22454965.651   119823998.7331        994.798          31.230  
R09  22852796.538                       -3201.608          26.144  
R11  20354074.967   108766005.0301       2302.008          38.491  
R20  20128441.270   107635820.9911        430.926          33.733  
R21  21740374.052                        4195.986          19.145  
> 2019  5 20  8 49 27.9999666  0 25
C08  38569155.629   200839693.894         492.842          30.206  
C11  22269099.723   115961053.015         942.802          35.901  
C12  26089775.624   135856328.0961      -2963.109          25.811  
C13  38481860.262                        1354.660          17.181  
C23  22025889.494   114694572.819        1051.143          40.221  
C25  22676266.148   118081290.699       -1754.227          33.228  
E03                                                                  26050394.587   136895747.231       -1962.230          30.008    26050387.692   102227308.703       -1465.296          31.607  
E08                                                                                                                                  24681907.971    96857107.254         353.444          29.642  
E11                                                                  24043291.576   126348336.540        2787.993          28.251    24043299.970    94351075.099        2082.030          28.715  
E12                                                                  23283279.321   122354470.789         250.619          29.134    23283294.910                         181.544          19.769  
E25                                                                                                                                  22921039.495    89947092.683         526.121          23.326  
G02  24211040.146   127229840.341        2906.029          33.368  
G12  20338127.507   106877565.613        1296.535          29.241  
G15  24702744.146   129813814.8291      -3562.009          24.609  
G17  23644233.937   124251321.013       -2872.736          33.592  
G19  21660008.988   113824102.020       -2061.822          31.940  
G24                                                                  20359901.434    79896623.564        -683.669          35.566  
G25  23057479.539   121167897.073        3064.852          33.058    23057454.357    90482407.781        2288.685          36.361  
G32  23682595.680                        2275.767          21.726    23682605.573    92935623.177        1700.089          30.116  
R01  22514787.137                       -3003.784          26.703  
R02  22454815.455   119823165.627         993.081          31.265  
R09  22853419.507                       -3202.372          26.017  
R11  20353675.943   108763864.378        2300.852          39.887  
R20  20128394.802   107635552.170         429.133          34.746  
R21  21739671.039                        4198.989          19.189  
> 2019  5 20  8 49 28.9999666  0 24
C08  38569064.792                         491.454          29.705  
C11  22268918.049   115960111.408         941.607          36.863  
C12  26090344.930   135859292.125       -2964.029          26.512  
C23  22025694.629   114693522.475        1050.344          37.432  
C25  22676607.311                       -1755.090          32.527  
E03                                                                  26050764.831   136897710.297       -1963.066          28.834    26050760.933   102228774.658       -1465.955          32.403  
E11                                                                  24042760.044   126345549.285        2787.255          27.865    24042772.635    94348993.662        2081.437          27.688  
E12                                                                  23283231.354   122354221.189         249.600          27.919    23283252.340                         182.442          18.790  
E25                                                                                                                                  22920909.984    89946566.987         525.696          25.235  
G02  24210487.328   127226934.961        2905.379          32.769  
G06  23267381.627   122270985.2321       2091.155          28.842    23267388.522                        1561.098          27.367  
G12  20337889.772   106876270.510        1295.103          27.204  
G15  24703413.583   129817377.586       -3562.757          29.936  
G17  23644776.862   124254194.623       -2873.610          33.036  
G19  21660403.814                       -2065.022          29.405  
G24                                                                  20360074.114    79897307.992        -684.428          35.651  
G25  23056888.648   121164833.098        3063.974          33.347    23056871.860    90480119.693        2288.088          35.522  
G32  23682163.379                        2277.352          18.227    23682169.975    92933923.989        1699.188          30.547  
R01  22515335.158   120357373.0781      -3006.432          26.265  
R02  22454623.288   119822173.981         991.646          28.288  
R09  22854011.297                       -3205.861          25.081  
R11  20353246.641   108761564.512        2299.866          41.096  
R20  20128305.164   107635124.585         427.585          35.019  
R21  21738767.464                        4202.771          22.594  
> 2019  5 20  8 49 29.9999666  0 24
C08  38568973.655   200838710.9811        491.322          30.381  
C11  22268737.274   115959170.712         940.696          36.143  
C12  26090912.137   135862256.691       -2964.567          26.181  
C13  38481296.353                        1356.418          23.462  
C23  22025494.068   114692473.016        1049.458          38.285  
C25  22676946.676   118084802.1221      -1755.897          30.879  
E03                                                                  26051142.569                       -1964.151          28.384    26051134.175   102230241.200       -1466.542          31.535  
E11                                                                  24042228.512   126342762.669        2786.616          26.666    24042242.902    94346912.684        2080.978          27.245  
E12                                                                  23283183.088   122353972.555         248.634          28.930    23283205.872                         190.077          19.254  
E25                                                                                                                                  22920774.778    89946042.039         524.948          25.680  
G02  24209937.809   127224030.264        2904.698          33.442  
G06  23266985.901   122268895.062        2090.170          30.948    23266986.500    91304660.0771       1560.905          26.720  
G12  20337625.955   106874975.913        1294.598          29.774  
G17  23645328.780   124257069.048       -2874.424          33.937  
G19  21660793.844   113828229.6631      -2063.579          29.992  
G24                                                                  20360249.193    79897993.188        -685.196          35.477  
G25  23056304.053   121161769.722        3063.376          34.032    23056288.763    90477832.182        2287.510          35.768  
G32                                                                  23681737.374    92932225.516        1698.473          30.213  
R01  22515863.692                       -3007.556          25.149  
R02  22454442.813   119821183.586         990.395          27.626  
R09  22854601.888                       -3203.751          24.095  
R11  20352813.740   108759265.333        2299.179          40.731  
R20  20128222.122   107634698.407         426.178          34.743  
R21  21737983.507                        4198.589          25.341  
> 2019  5 20  8 49 30.9999667  0 24
C08  38568912.198   200838376.380         490.710          29.697  
C11  22268588.277   115958387.354         939.469          33.516  
C12  26091513.521   135865378.165       -2965.364          26.825  
C13  38481061.615   200380946.5731       1355.527          25.830  
C23  22025321.987   114691580.402        1048.724          37.968  
C25  22677312.723   118086714.790       -1756.558          32.207  
E03                                                                  26051547.589                       -1965.496          27.341    26051537.696   102231826.027       -1467.182          31.287  
E11                                                                  24041731.156                        2788.348          22.230    24041744.347                        2080.224          25.782  
E12                                                                  23283164.201   122353882.562         247.535          27.300    23283186.685                         185.494          18.058  
E25                                                                                                                                  22920671.649    89945635.244         524.440          26.587  
G02  24209412.572   127221283.765        2904.041          32.462  
G06  23266617.756   122266962.911        2089.693          30.765  
G12  20337405.907                        1293.148          26.363  
G17  23645901.383   124260101.722       -2875.132          33.274  
G19  21661216.852                       -2065.781          27.732  
G24  20360481.832                        -922.964          22.743    20360454.251    79898796.838        -686.005          34.175  
G25  23055751.835   121158864.655        3062.609          33.835    23055736.246    90475662.761        2287.067          36.934  
G32                                                                  23681335.652    92930645.385        1697.776          31.244  
R01  22516478.866   120363549.3391      -3008.537          24.884  
R02  22454291.418   119820354.588         988.972          26.099  
R09  22855223.658                       -3202.234          22.515  
R11  20352412.918   108757127.226        2298.307          39.179  
R20  20128184.048   107634434.094         424.626          34.814  
R21  21737239.422                        4196.405          24.602  
> 2019  5 20  8 49 31.9999667  0 25
C08  38568815.964   200837886.497         489.884          29.768  
C11  22268409.301   115957449.038         938.316          32.821  
C12  26092082.227   135868344.393       -2966.228          27.003  
C13  38480795.999   200379591.939        1354.634          25.400  
C23  22025123.524   114690532.724        1047.678          37.979  
C25  22677645.193   118088472.334       -1757.543          32.628  
E02                                                                                                                                  26656145.934   104604419.7301       1791.208          25.634  
E03                                                                  26051922.329                       -1966.354          25.352    26051911.837   102233293.909       -1467.881          31.410  
E11                                                                  24041196.626                        2788.442          19.302    24041213.114                        2079.858          25.452  
E12                                                                  23283117.733   122353636.109         246.453          27.433  
E25                                                                                                                                  22920538.242    89945111.346         523.898          27.155  
G02  24208860.355   127218380.579        2903.186          32.886  
G06  23266225.028   122264874.843        2088.068          32.148  
G12  20337176.266                        1294.021          21.929  
G17  23646448.804   124262977.787       -2876.065          33.039  
G19  21661614.976   113832518.4251      -2066.170          27.476  
G24  20360666.504                        -931.139          21.125    20360629.929    79899483.730        -686.892          34.370  
G25  23055162.743   121155802.869        3061.787          33.937    23055153.749    90473376.376        2286.385          37.400  
G32  23680887.763                        2271.230          22.706    23680902.153    92928948.538        1696.846          32.059  
R01  22517055.067   120366558.891       -3009.551          25.076  
R02  22454109.743   119819367.205         987.384          25.847  
R09  22855825.941                       -3205.580          22.264  
R11  20351980.017   108754829.886        2297.341          39.483  
R20  20128096.809   107634011.024         423.070          35.081  
R21  21736464.159   116316097.8171       4196.943          25.757  
> 2019  5 20  8 49 32.9999668  0 25
C08  38568754.807   200837553.084         489.523          29.688  
C11  22268254.308   115956667.934         937.213          32.896  
C12  26092679.414                       -2967.529          26.809  
C13  38480568.757                        1354.334          25.160  
C23  22024952.942   114689642.071        1046.763          38.270  
C25  22678013.638   118090386.349       -1757.906          32.618  
E02                                                                                                                                  26655716.332   104602746.480        1790.895          25.618  
E03                                                                  26052330.047   136905886.2521      -1966.589          25.743    26052315.957   102234880.127       -1468.574          31.228  
E11                                                                  24040690.576   126334722.9641       2784.209          18.632    24040713.360    94340909.1591       2078.895          25.871  
E12                                                                  23283100.945   122353548.452         245.198          27.031  
E25                                                                                                                                  22920434.513    89944705.733         523.258          26.992  
G02  24208347.710   127215635.657        2902.463          33.719  
G06  23265860.780   122262945.384        2087.001          33.309  
G12  20336976.904                        1294.081          19.337  
G17  23647034.299   124266012.271       -2876.942          33.115  
G19  21662042.480   113834743.384       -2067.417          27.023  
G24  20360854.474                        -929.420          18.307    20360834.987    79900289.087        -687.712          34.444  
G25  23054609.926   121152899.484        3060.927          33.979    23054600.932    90471208.229        2285.792          37.289  
G32  23680487.540   124441732.5501       2271.114          24.043    23680499.531    92927370.146        1696.038          32.058  
R01  22517620.176   120369729.859       -3010.712          24.930  
R02  22453945.757                         986.016          23.978  
R09  22856439.916                       -3213.941          20.801  
R11  20351583.392   108752693.703        2296.382          39.051  
R20  20128050.640   107633749.777         421.559          35.203  
R21  21735724.571   116312062.269        4195.973          27.783  
> 2019  5 20  8 49 33.9999668  0 25
C08  38568660.972   200837064.667         488.416          28.908  
C11  22268076.531   115955731.845         936.090          34.545  
C12  26093252.917                       -2967.444          25.393  
C13  38480310.935   200377041.2951       1353.029          25.447  
C23  22024751.182   114688596.048        1046.024          38.046  
C25  22678354.802   118092145.444       -1759.094          31.659  
E02                                                                                                                                  26655260.947   104600956.000        1790.480          24.760  
E03                                                                  26052694.595                       -1968.129          26.478    26052690.098   102236349.359       -1469.232          30.927  
E11                                                                  24040187.524   126331939.957        2783.008          21.150    24040182.728    94338830.824        2078.335          26.444  
E12                                                                  23283050.280                         243.214          27.705  
E25                                                                                                                                  22920301.406    89944182.944         522.789          26.759  
G02  24207792.494   127212733.919        2901.738          34.963  
G06  23265462.056   122260859.445        2085.939          33.837    23265453.362    91298659.7181       1557.747          24.644  
G15  24706864.793   129835514.8201      -3565.683          25.149  
G17  23647576.024   124268889.974       -2877.703          33.585  
G19  21662434.609   113836811.919       -2068.535          28.215  
G24                                                                  20361010.366    79900977.637        -688.550          34.640  
G25  23054028.928   121149839.284        3060.199          33.717    23054019.335    90468923.015        2285.213          36.676  
G32  23680063.933                        2267.827          24.407    23680068.130    92925674.867        1695.278          31.228  
R01  22518178.689   120372741.707       -3011.848          25.636  
R02  22453765.282                         981.980          22.086  
R09  22857020.914                       -3216.865          17.744  
R11  20351144.196   108750398.178        2295.525          39.154  
R20  20127974.493   107633329.838         419.940          34.805  
R21  21734916.031   116307867.067        4195.202          28.694  
> 2019  5 20  8 49 34.9999669  0 24
C08  38568595.917   200836733.441         487.336          30.340  
C11  22267924.237   115954952.984         934.971          34.313  
C12  26093850.103   135877559.9441      -2968.620          25.508  
C13  38480082.193                        1349.900          23.441  
C23  22024582.699   114687707.298        1044.859          39.126  
C25  22678722.947   118094061.754       -1760.200          33.126  
E02                                                                                                                                  26654833.443   104599283.677        1789.968          25.164  
E03                                                                  26053106.809                       -1968.077          26.200    26053097.216   102237936.948       -1469.944          31.231  
E11                                                                  24039679.076   126329315.093        2782.406          23.535  
E12                                                                  23283035.890   122353218.5931        243.142          28.047    23283028.994                         177.950          21.377  
G02  24207268.157   127209990.433        2901.028          36.751  
G06  23265102.904   122258932.089        2084.898          32.764  
G12  20336484.944                        1288.252          26.265  
G15  24707568.406   129839238.447       -3566.085          32.656  
G17  23648154.923   124271926.170       -2878.654          33.801  
G24                                                                  20361215.424    79901784.643        -689.360          34.923  
G25  23053474.312   121146937.542        3059.284          32.971    23053467.417    90466756.064        2284.596          37.003  
G32  23679668.207                        2268.733          22.971    23679667.907    92924098.124        1694.388          30.631  
R01  22518810.652   120375914.954       -3012.991          27.333  
R02  22453597.698                         979.730          21.329  
R09  22857594.117                       -3211.887          17.744  
R11  20350741.875   108748263.702        2294.677          38.731  
R20  20127924.128   107633071.737         418.413          35.187  
R21  21734165.650   116303833.455        4194.037          30.545  
> 2019  5 20  8 49 35.9999669  0 24
C08  38568502.681   200836246.619         486.822          28.884  
C11  22267748.558   115954019.224         933.760          34.566  
C12  26094420.609   135880529.170       -2969.226          25.863  
C13  38479825.271                        1350.645          23.967  
C23  22024382.138   114686663.106        1044.192          37.995  
E02                                                                                                                                  26654374.461   104597494.106        1789.571          24.688  
E03                                                                  26053477.653   136911949.1351      -1969.396          27.128    26053471.357   102239407.519       -1470.572          31.751  
E11                                                                  24039153.241   126326533.450        2781.643          27.768  
E12                                                                  23282990.321   122352976.544         242.049          27.617    23282984.625                         180.905          22.205  
G02  24206718.637   127207090.133        2900.300          37.303  
G06  23264697.285   122256848.263        2083.826          33.621  
G12  20336235.517   106867698.9141       1288.848          26.099  
G15  24708248.336   129842805.137       -3566.690          36.925  
G17  23648705.942   124274805.589       -2879.420          33.872  
G19  21663240.750   113841110.5191      -2070.723          25.190  
G24  20361390.802   106999862.6301       -924.138          28.796    20361393.501    79902474.824        -690.181          35.314  
G25  23052888.218   121143878.770        3058.772          33.708    23052885.519    90464472.028        2284.036          37.207  
G32                                                                  23679235.906    92922404.540        1693.584          31.084  
R01  22519369.765   120378929.007       -3014.052          27.999  
R02  22453384.845                         983.489          20.033  
R09  22858203.295                       -3206.167          16.379  
R11  20350318.568   108745969.951        2293.750          39.715  
R20  20127855.476   107632654.861         416.877          35.385  
R21  21733384.091   116299640.548        4192.907          28.682  
> 2019  5 20  8 49 36.9999669  0 23
C08  38568411.544   200835760.496         486.123          29.746  
C11  22267566.584   115953086.342         932.882          35.024  
C12  26094993.812   135883499.209       -2970.039          26.201  
C13  38479565.951   200373142.4281       1351.009          25.553  
C23  22024179.478   114685619.726        1043.380          37.497  
E02                                                                                                                                  26653919.376   104595704.971        1789.135          25.367  
E03                                                                  26053853.892                       -1970.257          27.337    26053845.198   102240878.716       -1471.197          31.717  
E11                                                                  24038623.207   126323752.697        2780.753          28.643    24038617.811    94332717.1391       2076.578          29.193  
E12                                                                  23282944.453   122352735.279         241.265          27.419    23282939.356    91367360.4031        180.023          22.421  
G02  24206167.619   127204190.438        2899.695          36.755  
G06  23264303.358   122254765.298        2082.965          33.121    23264291.966    91294108.7701       1555.360          23.524  
G15  24708928.265   129846372.241       -3567.104          38.219  
G17  23649253.363   124277685.781       -2880.192          32.435  
G19  21663624.485   113843182.186       -2071.667          23.047  
G24  20361572.177   107000787.850        -925.220          28.469    20361568.280    79903165.750        -690.926          34.867  
G25  23052305.121   121140820.803        3057.967          33.550    23052303.622    90462188.455        2283.574          37.490  
G32                                                                  23678802.706    92920711.607        1692.933          31.203  
R01  22519937.871   120381944.029       -3015.022          28.424  
R02  22453170.194                         984.111          19.560  
R09  22858898.514                       -3203.691          19.184  
R11  20349891.963   108743676.915        2293.036          40.016  
R20  20127783.825   107632239.309         415.551          35.130  
R21  21732602.832   116295448.236        4192.312          30.624  
> 2019  5 20  8 49 37.9999670  0 24
C08  38568348.888   200835431.272         485.334          29.743  
C11  22267418.187   115952310.815         931.637          35.704  
C12  26095590.698   135886626.023       -2970.704          26.885  
C13  38479334.211                        1352.041          24.010  
C23  22024009.795   114684733.318        1042.518          37.680  
E02                                                                                                                                  26653492.771   104594034.002        1788.614          25.059  
E03                                                                  26054262.210   136916047.6701      -1970.988          27.577    26054250.218   102242468.197       -1471.836          31.788  
E08                                                                  24681171.381                         465.530          23.879    24681144.099                         351.209          20.400  
E11                                                                  24038123.753   126321130.075        2780.164          29.835    24038118.957    94330758.678        2076.106          27.935  
E12                                                                  23282926.465   122352652.811         240.011          28.100    23282924.367                         179.055          23.507  
G02  24205649.877   127201448.959        2899.021          36.387  
G06  23263931.915   122252840.943        2081.897          34.324    23263917.225                        1554.671          21.204  
G15  24709636.974   129850097.400       -3567.617          38.720  
G17  23649830.763   124280724.267       -2880.944          33.313  
G19  21664043.894                       -2072.939          21.498  
G24  20361777.235   107001871.819        -926.427          29.347    20361775.736    79903975.135        -691.740          35.212  
G25  23051755.002   121137921.085        3057.260          33.343    23051750.205    90460023.133        2282.967          37.005  
G32                                                                  23678402.483    92919137.116        1692.136          30.933  
R01  22520542.853                       -3016.971          29.474  
R02  22452979.526                         984.106          17.786  
R09  22859538.871                       -3203.411          14.520  
R11  20349492.939   108741545.028        2292.088          40.109  
R20  20127727.464   107631985.665         413.957          35.801  
R21  21731851.552   116291417.405        4191.255          31.463  
> 2019  5 20  8 49 38.9999670  0 23
C08  38568255.652   200834946.613         484.659          29.466  
C11  22267235.314   115951380.153         930.662          35.263  
C12  26096164.801                       -2971.492          25.979  
C13  38479063.499                        1346.574          22.513  
C23  22023813.431   114683691.667        1041.651          37.906  
E02                                                                                                                                  26653038.585   104592245.610        1788.393          25.219  
E03                                                                  26054636.650   136918019.467       -1971.796          26.635    26054624.659   102243940.596       -1472.399          31.255  
E08                                                                  24681107.825                         484.685          21.638  
E11                                                                  24037595.519   126318350.810        2779.265          30.200  
E12                                                                  23282882.096   122352413.659         239.152          28.199  
G02  24205098.259   127198550.644        2898.315          37.127  
G06  23263535.589   122250759.977        2080.966          34.991    23263529.594                        1554.835          22.131  
G15  24710314.505   129853665.553       -3568.153          36.556  
G17  23650375.186   124283606.011       -2881.744          32.871  
G19  21664438.721                       -2073.379          21.193  
G24  20361951.115   107002799.139        -927.320          27.082    20361953.513    79904667.648        -692.513          35.222  
G25  23051173.705   121134864.632        3056.453          33.719    23051170.107    90457740.669        2282.464          36.937  
G32                                                                  23677972.581    92917445.748        1691.368          30.865  
R01  22521101.666   120388137.4221      -3017.097          29.914  
R02  22452791.856                         980.673          12.563  
R11  20349052.844   108739253.707        2291.321          39.181  
R20  20127648.319   107631573.070         412.594          35.288  
R21  21731066.096   116287227.084        4190.321          35.300  
> 2019  5 20  8 49 39.9999671  0 23
C08  38568193.295   200834618.376         484.347          29.433  
C11  22267087.516   115950606.217         930.047          35.045  
C12  26096762.587   135892725.1431      -2971.654          25.612  
C13  38478834.757                        1346.815          22.657  
C23  22023643.149   114682806.429        1041.347          38.069  
E02                                                                                                                                  26652611.981   104590575.046        1788.209          24.680  
E03                                                                  26055039.871   136920149.133       -1972.125          25.873    26055030.278   102245530.958       -1472.717          31.104  
E08                                                                  24681033.476   129699567.2881        461.497          20.255  
E11                                                                  24037098.163   126315729.346        2779.006          29.825  
E12                                                                  23282866.207   122352332.637         238.564          28.392    23282864.708                         178.432          24.116  
G02  24204572.123   127195810.060        2898.126          37.044  
G06  23263165.046   122248837.143        2080.376          34.865    23263159.949    91289681.9451       1553.393          22.632  
G12  20335324.748   106862868.9251       1285.366          28.425  
G15  24711023.215   129857391.312       -3568.217          36.935  
G17  23650958.282   124286645.631       -2882.077          32.951  
G19  21664886.611                       -2077.810          23.926  
G24  20362160.669   107003884.651        -927.970          26.456    20362159.770    79905478.147        -692.854          35.222  
G25  23050619.388   121131965.861        3056.314          33.255    23050618.189    90455576.033        2282.281          37.065  
G32  23677583.450   124426331.1861       2264.468          26.084    23677572.358    92915872.468        1690.925          31.111  
R01  22521689.859   120391315.352       -3017.674          30.118  
R11  20348660.715   108737122.929        2290.978          39.382  
R20  20127594.956   107631321.919         411.464          35.154  
R21  21730313.317   116283197.689        4189.820          36.428  
> 2019  5 20  8 49 40.9999671  0 23
C08  38568100.060   200834132.658         485.718          29.285  
C11  22266907.041   115949675.247         930.970          35.195  
C12  26097333.092   135895695.527       -2970.384          25.955  
C13  38478580.833                        1350.665          21.994  
C23  22023442.888   114681763.923        1042.507          37.672  
E02                                                                                                                                  26652158.095   104588785.731        1789.314          24.640  
E03                                                                  26055413.712   136922120.027       -1970.894          25.065    26055405.318   102247002.793       -1471.834          30.901  
E08                                                                  24680958.828   129699104.703         462.584          21.913  
E11                                                                  24036570.229   126312949.025        2780.321          28.682    24036564.832    94324649.4101       2076.205          28.375  
E12                                                                  23282820.639   122352093.071         239.566          28.635    23282820.039    91366880.8071        178.931          23.690  
G02  24204020.205   127192910.562        2899.498          37.638  
G06  23262770.519   122246755.691        2081.451          34.320    23262763.324                        1553.783          22.174  
G12  20335085.213   106861582.519        1286.406          30.528  
G15  24711702.544   129860957.994       -3566.682          36.874  
G17  23651502.106   124289526.436       -2880.805          33.192  
G19  21665284.735   113851796.4911      -2073.662          23.801  
G24                                                                  20362334.849    79906170.353        -692.206          35.363  
G25  23050032.395   121128908.331        3057.530          32.950    23050036.592    90453292.766        2283.267          37.097  
G32                                                                  23677139.457    92914180.755        1691.712          31.151  
R01  22522254.068   120394331.985       -3016.632          30.234  
R11  20348234.410   108734830.688        2292.241          39.197  
R20  20127521.207   107630909.775         412.144          35.179  
R21  21729557.840   116279006.625        4191.064          32.551  
> 2019  5 20  8 49 41.9999672  0 23
C08  38568036.504   200833801.934         486.834          29.206  
C11  22266760.742   115948899.580         931.777          34.633  
C12  26097935.675   135898820.858       -2969.221          25.708  
C13  38478351.192                        1350.633          22.094  
C23  22023272.306   114680876.499        1043.534          37.212  
E02                                                                                                                                  26651730.291   104587113.135        1790.241          24.649  
E03                                                                  26055817.833   136924247.549       -1969.980          25.505    26055810.338   102248591.502       -1471.064          31.124  
E11                                                                  24036067.477   126310325.125        2781.442          29.274    24036065.378    94322690.019        2077.036          28.508  
E12                                                                  23282805.949   122352010.204         240.409          28.308    23282804.150    91366818.931         179.521          24.316  
G02  24203497.967   127190167.387        2900.718          37.467  
G06  23262403.273   122244830.920        2082.314          34.604    23262398.177                        1555.071          21.791  
G12  20334872.960   106860452.688        1287.373          32.188  
G15  24712412.153   129864680.816       -3565.280          37.734  
G17  23652080.405   124292563.649       -2879.670          32.692  
G19  21665704.445   113854027.060       -2073.027          25.441  
G24                                                                  20362542.006    79906979.528        -691.530          35.075  
G25  23049476.879   121126007.146        3058.726          32.272    23049484.374    90451126.308        2284.102          37.043  
G32                                                                  23676738.035    92912606.079        1692.321          31.074  
R01  22522850.655   120397507.988       -3015.748          30.165  
R09  22861953.099                       -3210.397          13.789  
R11  20347838.385   108732697.634        2293.253          39.397  
R20  20127475.039   107630657.600         412.488          35.097  
R21  21728791.271   116274975.052        4191.998          31.788  
> 2019  5 20  8 49 42.9999672  0 22
C08  38567943.868   200833314.795         487.140          29.645  
C11  22266576.670   115947967.765         931.815          34.400  
C12  26098505.281   135901789.711       -2968.854          25.714  
C13  38478098.467                        1352.469          22.942  
C23  22023073.843   114679832.663        1043.836          36.986  
E02                                                                                                                                  26651273.707   104585322.400        1790.735          24.471  
E03                                                                  26056195.871   136926217.196       -1969.647          27.248    26056184.779   102250062.287       -1470.786          31.090  
E11                                                                  24035540.142   126307543.416        2781.709          28.460    24035535.645    94320612.765        2077.254          28.963  
E12                                                                  23282762.479   122351769.674         240.530          28.089    23282758.881    91366639.479         179.453          25.415  
G02  24202945.150   127187266.267        2901.120          37.479  
G06  23262006.348   122242748.493        2082.426          34.860  
G12  20334639.722   106859165.174        1287.514          33.561  
G15  24713089.684   129868245.549       -3564.733          37.856  
G17  23652634.122   124295443.088       -2879.439          33.387  
G19  21666100.471   113856099.929       -2072.869          26.335  
G24                                                                  20362718.883    79907671.066        -691.538          35.278  
G25  23048899.179   121122948.049        3059.097          32.833    23048903.076    90448841.917        2284.391          36.859  
G32                                                                  23676308.133    92910913.650        1692.430          31.398  
R01  22523412.766   120400523.632       -3015.643          29.981  
R11  20347407.883   108730404.080        2293.555          39.446  
R20  20127402.789   107630245.419         412.180          35.204  
R21  21728022.603   116270782.799        4192.253          33.297  
> 2019  5 20  8 49 43.9999672  0 25
C08  38567850.033   200832829.043         485.752          29.904  
C11  22266397.094   115947037.789         929.976          34.473  
C12  26099079.383   135904760.005       -2970.294          25.701  
C13  38477841.245                        1352.639          23.992  
C20  25827873.036                        -603.271          15.870  
C23  22022868.785   114678790.478        1042.185          36.366  
E02                                                                                                                                  26650817.423   104583532.676        1789.724          25.070  
E03                                                                  26056567.014   136928188.460       -1971.264          28.172    26056561.018   102251534.336       -1472.048          31.272  
E08                                                                  24680696.509                         460.794          25.488  
E11                                                                  24035010.409   126304763.136        2780.279          28.286    24035006.211    94318536.665        2076.100          29.076  
E12                                                                  23282717.210   122351531.003         238.671          28.253    23282712.114    91366461.131         178.348          25.434  
G02  24202391.433   127184366.539        2899.728          37.038  
G06  23261602.228   122240667.762        2080.732          34.021  
G12  20334394.192   106857879.349        1285.825          33.912  
G15  24713769.613   129871811.533       -3565.983          37.968  
G17  23653182.443   124298323.977       -2880.889          34.002  
G19  21666494.398   113858174.606       -2074.677          26.408  
G24  20362901.457   107007748.9441       -927.795          24.903    20362894.262    79908363.877        -692.811          35.111  
G25  23048319.980   121119890.405        3057.644          33.030    23048319.980    90446558.606        2283.311          36.898  
G32                                                                  23675875.532    92909222.572        1691.078          31.260  
R01  22523992.564   120403541.116       -3017.484          30.516  
R09  22863178.651                       -3206.836          17.675  
R11  20346982.477   108728112.077        2292.002          39.049  
R20  20127334.436   107629835.458         409.961          34.676  
R21  21727235.648   116266592.234        4190.565          34.655  
> 2019  5 20  8 49 44.9999673  0 25
C08  38567785.278   200832500.656         484.497          29.644  
C11  22266248.997   115946265.496         928.403          33.746  
C12  26099675.671                       -2971.587          25.918  
C13  38477609.205                        1349.220          24.249  
C20  25828027.129                        -606.522          17.485  
C23  22022697.604   114677905.643        1040.944          35.209  
E02                                                                                                                                  26650392.317   104581861.392        1788.929          25.735  
E03                                                                  26056972.633   136930318.621       -1972.620          28.337    26056966.038   102253125.025       -1473.045          31.278  
E08                                                                  24680647.044   129697570.5821        460.293          25.389  
E11                                                                  24034511.554   126302141.742        2778.936          28.017    24034507.657    94316579.038        2075.272          29.209  
E12                                                                  23282700.122   122351451.268         237.277          27.571    23282698.323                         176.497          25.165  
G02  24201869.794   127181625.545        2898.536          36.866  
G06  23261244.276   122238746.131        2079.172          34.648  
G12  20334180.440   106856752.495        1284.396          34.761  
G15  24714480.721   129875536.088       -3567.013          37.944  
G17  23653755.346   124301363.746       -2882.226          33.662  
G19  21666919.204   113860408.495       -2076.347          26.588  
G24  20363118.806   107008835.902        -929.416          26.049    20363102.617    79909175.501        -693.979          35.266  
G25  23047759.068   121116991.570        3056.377          32.871    23047767.762    90444393.896        2282.355          37.020  
G32  23675509.786   124415591.2121       2263.067          30.132    23675476.808    92907650.331        1689.886          31.104  
R01  22524584.055   120406720.354       -3018.981          30.822  
R09  22863749.456                       -3213.087          16.179  
R11  20346576.258   108725981.665        2290.612          38.822  
R20  20127283.771   107629587.873         407.898          34.183  
R21  21726487.666   116262563.591        4189.067          35.382  
> 2019  5 20  8 49 45.9999673  0 26
C08  38567691.143   200832017.234         483.422          29.135  
C11  22266073.018   115945338.552         926.944          34.022  
C12  26100250.073   135910860.2021      -2972.576          26.032  
C13  38477347.487                        1348.432          22.610  
C20  25828147.046                        -607.994          17.357  
C23  22022492.246   114676865.972        1039.671          34.600  
E02                                                                                                                                  26649936.633   104580073.275        1788.117          25.437  
E03                                                                  26057347.074   136932292.446       -1973.825          28.430    26057341.678   102254599.019       -1473.994          31.684  
E08                                                                  24680542.116   129697111.634         458.947          25.505  
E11                                                                  24033985.118   126299363.968        2777.774          27.846    24033979.422    94314504.659        2074.379          29.181  
E12                                                                  23282655.453   122351215.546         235.722          27.911    23282655.753    91366225.5681        176.094          25.270  
G02  24201318.776   127178728.088        2897.457          37.042  
G06  23260848.250   122236668.362        2077.770          35.051  
G12  20333933.111   106855469.426        1283.069          34.701  
G15  24715158.252   129879103.982       -3567.894          37.639  
G17  23654307.564   124304247.083       -2883.337          34.203  
G19  21667314.630   113862486.314       -2077.819          25.989  
G24  20363305.577   107009766.607        -930.705          26.768    20363279.495    79909870.553        -695.052          35.204  
G25  23047175.073   121113936.273        3055.297          32.582    23047188.264    90442112.334        2281.562          37.266  
G32  23675078.684   124413329.608        2261.603          30.474    23675045.107    92905961.456        1688.875          30.894  
R01  22525142.268   120409740.793       -3020.440          30.880  
R02  22451712.303                         970.505          21.887  
R09  22864461.762                       -3218.697          16.185  
R11  20346145.457   108723692.220        2289.445          38.725  
R20  20127197.731   107629181.762         406.111          34.099  
R21  21725702.209   116258375.793        4187.798          36.133  
> 2019  5 20  8 49 46.9999674  0 27
C08  38567629.985   200831690.818         482.526          29.950  
C11  22265924.321   115944568.934         925.728          34.095  
C12  26100849.658   135913989.914       -2973.603          26.204  
C13  38477114.848                        1344.769          21.859  
C20  25828241.480                        -607.846          18.816  
C23  22022322.863   114675983.407        1038.674          34.669  
C25  22682928.735   118115998.0751      -1766.210          34.168  
E02                                                                                                                                  26649511.227   104578403.259        1787.660          25.545  
E03                                                                  26057750.295   136934424.807       -1974.819          28.822    26057746.697   102256191.366       -1474.702          31.526  
E08                                                                  24680479.160                         457.194          25.141  
E11                                                                  24033485.364   126296744.583        2776.927          27.754    24033482.666    94312548.753        2073.551          29.038  
E12                                                                  23282639.264   122351138.416         234.671          27.948    23282639.864    91366168.069         175.144          25.337  
G02  24200798.936   127175989.002        2896.627          37.276  
G06  23260485.501   122234749.297        2076.607          34.609  
G12  20333718.160   106854345.021        1281.947          34.201  
G15  24715866.062   129882830.086       -3568.562          38.299  
G17  23654888.262   124307289.003       -2884.378          34.660  
G19  21667742.434   113864722.918       -2079.062          26.836  
G24  20363520.528   107010856.181        -932.032          26.349    20363487.551    79910684.213        -696.015          35.288  
G25  23046624.354   121111039.406        3054.409          32.164    23046636.945    90439949.080        2280.899          37.354  
G32                                                                  23674647.283    92904391.114        1687.987          31.460  
R01  22525741.554   120412922.689       -3021.639          30.919  
R02  22451589.988                         969.412          23.254  
R09  22865055.352                       -3212.975          20.599  
R11  20345760.523   108721564.022        2288.398          38.333  
R20  20127157.559   107628937.665         404.409          33.152  
R21  21724950.630   116254349.605        4186.613          35.572  
> 2019  5 20  8 49 47.9999674  0 25
C08  38567538.249   200831209.024         481.794          29.071  
C11  22265747.444   115943644.300         924.634          33.690  
C12  26101415.366   135916964.133       -2974.219          25.215  
C13  38476859.425                        1349.480          23.192  
C23  22022118.105   114674945.574        1037.833          33.536  
C25  22683267.501   118117765.190       -1767.114          34.023  
E02                                                                                                                                  26649055.243   104576616.067        1787.192          25.871  
E03                                                                  26058131.331   136936400.502       -1975.694          28.957    26058122.937   102257666.704       -1475.338          31.418  
E11                                                                  24032958.329                        2775.599          26.819    24032952.333    94310475.674        2073.079          28.751  
E12                                                                  23282592.197   122350904.978         233.438          27.178    23282597.893    91365993.649         174.420          26.054  
G02  24200244.319   127173093.067        2895.935          36.927  
G06  23260088.576   122232673.681        2075.616          34.167  
G12  20333472.930   106853064.119        1280.902          33.831  
G15  24716544.792   129886399.210       -3569.124          36.957  
G17  23655434.184   124310174.169       -2885.166          34.639  
G19  21668136.661                       -2081.395          25.978  
G24                                                                  20363665.628    79911381.034        -696.821          35.275  
G25  23046046.954   121107985.807        3053.599          32.505    23046055.048    90437668.792        2280.288          37.379  
G32  23674250.358   124408967.3011       2259.442          30.874    23674215.582    92902703.898        1687.215          31.585  
R01  22526312.958   120415945.413       -3022.725          30.474  
R02  22451431.098   119804883.6931        968.812          26.571  
R09  22865664.530                       -3208.833          21.611  
R11  20345330.321   108719276.482        2287.540          38.786  
R20  20127063.424   107628534.772         402.893          32.934  
R21  21724170.270   116250163.820        4185.785          36.431  
> 2019  5 20  8 49 48.9999675  0 26
C08  38567473.194   200830884.273         480.861          28.619  
C11  22265599.346   115942877.057         923.352          34.191  
C12  26102023.945   135920095.427       -2975.184          25.257  
C13  38476635.480   200357884.9291       1346.243          23.857  
C23  22021944.825   114674064.871        1036.813          33.308  
C25  22683641.941   118119689.282       -1767.982          34.288  
E02                                                                                                                                  26648630.737   104574947.040        1786.672          26.008  
E03                                                                  26058535.751   136938534.757       -1976.713          29.949    26058529.755   102259260.469       -1476.120          31.438  
E08                                                                  24680339.157                         455.219          25.318  
E11                                                                  24032460.674   126291350.8991       2775.126          28.230    24032454.378                        2072.411          28.837  
E12                                                                  23282580.805   122350830.158         232.362          27.374    23282580.805    91365937.797         173.497          25.791  
G02  24199726.278   127170355.473        2895.136          36.577  
G06  23259726.127   122230756.782        2074.441          35.089  
G12  20333250.783   106851941.800        1279.861          33.193  
G15  24717252.003   129890126.538       -3569.786          37.232  
G17  23656018.179   124313217.796       -2886.085          35.226  
G19  21668563.266                       -2081.599          26.795  
G24  20363904.262   107012881.2671       -934.414          25.101    20363872.185    79912196.373        -697.694          35.594  
G25  23045502.231   121105090.610        3052.738          32.353    23045504.929    90435506.773        2279.664          37.413  
G32  23673845.338   124406866.692        2258.151          30.795    23673816.858    92901135.250        1686.294          31.143  
R01  22526902.050   120419129.616       -3023.947          30.012  
R02  22451281.501   119804076.314         967.353          27.446  
R09  22866284.501                       -3217.242          19.801  
R11  20344932.796   108717150.139        2286.543          39.160  
R20  20127019.055   107628293.797         401.288          32.855  
R21  21723414.793   116246139.578        4184.667          36.940  
> 2019  5 20  8 49 49.9999675  0 26
C08  38567376.661   200830404.154         480.119          28.372  
C11  22265421.569   115941954.755         922.303          34.685  
C12  26102595.049   135923071.287       -2975.860          25.711  
C13  38476378.857                        1347.160          22.146  
C23  22021738.268   114673028.905        1035.966          31.859  
C25  22683985.803   118121458.117       -1768.836          34.629  
E02                                                                                                                                  26648175.352   104573160.814        1786.226          26.387  
E03                                                                  26058916.488   136940512.339       -1977.582          29.986    26058905.695   102260737.218       -1476.749          31.527  
