     3.03           OBSERVATION DATA    M: Mixed            RINEX VERSION / TYPE
Geo++ RINEX Logger  Geo++               20190520 082348 UTC PGM / RUN BY / DATE
************************************************************COMMENT
This file was generated by the Geo++ RINEX Logger App       COMMENT
for Android devices (Version   2.1). If you encounter       COMMENT
any issues, please send an email to android@geopp.de        COMMENT
************************************************************COMMENT
Geo++                                                       MARKER NAME
GEODETIC                                                    MARKER TYPE
Geo++               Geo++                                   OBSERVER / AGENCY
unknown             Xiaomi              MI 8                REC # / TYPE / VERS
unknown             MI 8                                    ANT # / TYPE
3995173.8868 1384946.8013 4759490.132                       APPROX POSITION XYZ
        0.0000        0.0000        0.0000                  ANTENNA: DELTA H/E/N
G    8 C1C L1C D1C S1C C5Q L5Q D5Q S5Q                      SYS / # / OBS TYPES
R    4 C1C L1C D1C S1C                                      SYS / # / OBS TYPES
E   12 C1B L1B D1B S1B C1C L1C D1C S1C C5Q L5Q D5Q S5Q      SYS / # / OBS TYPES
C    4 C2I L2I D2I S2I                                      SYS / # / OBS TYPES
J    8 C1C L1C D1C S1C C5Q L5Q D5Q S5Q                      SYS / # / OBS TYPES
  2019     5    20     8    24    6.0263300     GPS         TIME OF FIRST OBS
 24 R01  1 R02 -4 R03  5 R04  6 R05  1 R06 -4 R07  5 R08  6 GLONASS SLOT / FRQ #
    R09 -2 R10 -7 R11  0 R12 -1 R13 -2 R14 -7 R15  0 R16 -1 GLONASS SLOT / FRQ #
    R17  4 R18 -3 R19  3 R20  2 R21  4 R22 -3 R23  3 R24  2 GLONASS SLOT / FRQ #
G L1C                                                       SYS / PHASE SHIFT
G L5Q -0.25000                                              SYS / PHASE SHIFT
R L1C                                                       SYS / PHASE SHIFT
E L1B                                                       SYS / PHASE SHIFT
E L1C +0.50000                                              SYS / PHASE SHIFT
E L5Q -0.25000                                              SYS / PHASE SHIFT
C L2I                                                       SYS / PHASE SHIFT
J L1C                                                       SYS / PHASE SHIFT
J L5Q -0.25000                                              SYS / PHASE SHIFT
 C1C    0.000 C1P    0.000 C2C    0.000 C2P    0.000        GLONASS COD/PHS/BIS
                                                            END OF HEADER
> 2019  5 20  8 24  6.0002633  3  1
Geo++                                                       MARKER NAME
> 2019  5 20  8 24  6.0002633  0 22
C13  38896041.831   202541896.2811       1637.545          29.516  
C20  25748756.907   134080533.5181        241.506          28.281  
C23  22380634.809   116541837.5611       1529.476          37.552  
C25  22210983.756   115658420.8181      -1260.834          37.959  
E03                                                                  25540547.447   134216482.7901      -1368.055          34.198    25540547.747   100226594.7411      -1021.592          32.043  
E11                                                                                                                                  24877914.378    97626279.0601       2325.258          27.672  
E12                                                                  23446033.649   123209738.6411       1033.815          29.711    23446035.747    92007279.4451        771.953          27.085  
E25                                                                  23149124.295   121649469.1281       1035.607          41.427    23149126.993    90842145.7331        773.337          40.695  
G02  25055434.084   131667194.7051       3052.387          27.404  
G06  23948055.007   125847877.5481       2730.785          36.732    23948052.308    93977300.4791       2039.282          32.096  
G10                                                                  25189152.912    98847646.0411      -1504.138          32.676  
G12  20786397.876   109233258.0011       1961.933          44.305  
G15  23661904.305   124344145.4281      -3419.306          36.783  
G17  22861563.969   120138329.4651      -2330.924          44.888  
G24  20192157.061   106110501.1181        -76.165          43.893    20192153.163    79238345.2981        -56.864          43.929  
G25  23967210.246   125948539.0361       3373.266          29.326  
G32  24424566.125                        2981.038          27.132    24424540.043    95847140.4381       2226.342          24.747  
R01  21767119.137                       -2018.822          20.455  
R02  22897142.438   122183538.9351       2251.422          34.911  
R10  19539393.459   104155962.0401       -539.804          36.751  
R20  20433902.204   109269257.4741       1867.671          26.607  
R21  22982912.761   122986208.5441       4651.970          36.337  
> 2019  5 20  8 24  7.0002633  0 23
C13  38895725.550   202540259.079        1637.202          29.381  
C20  25748707.741   134080292.676         240.842          27.849  
C23  22380338.914   116540308.538        1529.023          36.625  
C25  22211226.588   115659682.070       -1261.252          37.145  
E03                                                                  25540804.069   134217851.514       -1368.725          34.600    25540808.566   100227616.814       -1022.073          31.769  
E11                                                                  24877331.582   130731355.1321       3113.645          30.631    24877322.888    97623953.829        2325.231          28.679  
E12                                                                  23445838.184   123208705.589        1033.052          29.652    23445837.285                         771.583          26.498  
E25                                                                  23148926.731   121648433.919        1035.208          40.962    23148929.729    90841372.667         773.066          40.650  
G02  25054853.986   131664142.519        3052.186          27.617  
G06  23947535.466   125845147.282        2730.266          36.361    23947534.867    93975261.692        2038.787          32.104  
G10  25189526.454                       -2016.365          19.567    25189534.548    98849150.659       -1504.618          32.572  
G12  20786027.333   109231296.693        1961.308          44.734  
G13  25261148.671                       -3850.841          22.794  
G15  23662556.653   124347565.049       -3419.621          40.345  
G17  22862007.661   120140661.075       -2331.610          43.807  
G24  20192172.950   106110578.016         -76.898          43.271    20192167.553    79238402.710         -57.413          43.984  
G25  23966571.388   125945166.204        3372.832          29.130  
G32  24423995.919   128348980.5691       2980.631          27.105    24423972.835    95844914.698        2225.740          23.946  
R01  21767485.184                       -2020.119          22.147  
R02  22896715.534   122181288.509        2250.426          35.032  
R10  19539495.389   104156502.506        -540.466          35.901  
R20  20433551.447   109267390.809        1866.665          27.716  
R21  22982033.469   122981556.924        4651.620          37.985  
> 2019  5 20  8 24  8.0002634  0 23
C13  38895439.248   202538778.291        1636.898          30.123  
C20  25748694.250   134080208.769         240.017          26.889  
C23  22380076.595   116538936.037        1528.610          35.900  
C25  22211498.799   115661099.919       -1261.740          38.954  
E03                                                                  25541091.870   134219378.311       -1369.255          33.550    25541099.964   100228756.992       -1022.533          32.656  
E11                                                                  24876766.473   130728399.345        3113.330          32.505    24876757.779    97621746.523        2324.951          27.978  
E12                                                                  23445672.399   123207830.662        1032.470          28.547    23445670.900    92005854.5351        771.020          26.818  
E25                                                                  23148759.148   121647556.544        1034.917          41.320    23148763.644    90840717.519         772.793          41.041  
G02  25054303.567   131661247.963        3052.098          27.542  
G06  23947040.809   125842575.028        2729.796          37.086    23947045.605    93973340.928        2038.409          31.110  
G10  25189932.373                       -2016.795          18.547    25189949.761    98850773.229       -1504.925          32.839  
G12  20785683.171   109229493.461        1960.774          45.369  
G13  25261893.055                       -3851.023          24.411  
G15  23663235.083   124351142.528       -3419.937          43.275  
G17  22862483.732   120143150.673       -2332.056          40.783  
G24  20192220.916   106110813.141         -77.584          41.929    20192212.222    79238578.284         -57.928          44.503  
G25  23965955.614   125941951.200        3372.546          28.026  
G32  24423447.299   128346158.066        2980.046          26.515    24423433.209                        2225.029          23.667  
R01  21767867.119                       -2020.082          24.242  
R02  22896346.489   122179198.775        2249.708          32.916  
R10  19539628.796   104157203.390        -541.078          35.264  
R20  20433227.371   109265685.566        1865.556          29.346  
R21  22981195.250   122977066.063        4651.286          38.152  
> 2019  5 20  8 24  9.0002634  0 25
C12  25260677.397                       -2525.272          21.885  
C13  38895126.864   202537141.606        1636.684          30.780  
C20  25748647.782   134079969.205         239.564          25.975  
C23  22379780.400   116537407.754        1528.283          35.858  
C25  22211741.032   115662362.068       -1262.149          39.948  
E03                                                                  25541351.790   134220748.057       -1369.746          32.872    25541360.484   100229779.825       -1022.833          32.752  
E08                                                                  24901855.504                        1208.419          33.937  
E11                                                                  24876176.182   130725286.199        3113.145          32.752    24876166.288    97619421.773        2324.750          28.519  
E12                                                                  23445480.232   123206798.703        1031.959          29.122    23445475.435    92005083.969         770.565          27.483  
E25                                                                  23148562.484   121646521.933        1034.611          41.426    23148566.081    90839944.885         772.634          40.728  
G02  25053729.164   131658195.967        3051.996          27.855  
G06  23946523.067   125839845.690        2729.338          37.615    23946525.465    93971302.669        2038.259          31.246  
G12  20785311.428   109227533.152        1960.309          45.401  
G13  25262635.042   132756113.7011      -3851.115          24.307  
G15  23663885.633   124354562.669       -3420.141          43.189  
G17  22862923.228   120145483.219       -2332.546          39.662  
G19  21180192.358   111302724.3761      -1061.310          30.204  
G24  20192230.809   106110891.278         -78.137          41.792    20192227.512    79238636.627         -58.343          44.856  
G25  23965308.362   125938578.928        3372.272          26.882  
G32                                                                  24422864.803                        2225.920          22.308  
R01  21768228.669                       -2018.939          24.412  
R02  22895915.388   122176950.008        2248.767          31.972  
R10  19539735.523   104157744.915        -541.525          35.878  
R20  20432885.907   109263820.932        1864.634          30.149  
R21  22980325.252   122972414.939        4651.124          38.466  
> 2019  5 20  8 24 10.0002635  0 24
C12  25261223.919                       -2525.908          24.495  
C13  38894840.262   202535661.332        1636.384          29.862  
C20  25748626.797   134079886.454         238.861          24.940  
C23  22379517.782   116536036.014        1527.850          35.997  
C25  22212012.344   115663780.769       -1262.591          39.428  
E03                                                                  25541647.086   134222275.952       -1370.353          34.941    25541650.983   100230920.794       -1023.324          34.819  
E08                                                                  24901660.039   130859291.5821       1208.109          33.427  
E11                                                                  24875614.371   130722330.868        3112.873          32.735    24875602.679    97617214.914        2324.503          28.358  
E12                                                                  23445313.847   123205924.940        1031.305          29.686    23445311.149    92004431.385         770.229          28.153  
E25                                                                  23148396.399   121645645.238        1034.238          40.987    23148399.696    90839290.184         772.346          41.029  
G02  25053174.848   131655301.728        3051.781          27.848  
G06  23946038.003   125837274.304        2728.929          35.447    23946038.303    93969382.452        2037.862          31.252  
G12  20784966.067   109225730.977        1959.717          45.733  
G13  25263400.112                       -3851.555          24.083  
G15  23664564.663   124358140.697       -3420.486          42.603  
G17  22863399.598   120147973.916       -2333.155          41.664  
G24  20192279.376   106111127.646         -78.826          41.061    20192272.181    79238813.168         -58.897          45.331  
G25  23964700.683   125935364.548        3371.922          27.218  
G32  24422339.266   128340356.7561       2979.199          26.221  
R01  21768631.290                       -2019.475          22.692  
R02  22895538.848   122174862.118        2247.865          32.839  
R10  19539872.828   104158446.872        -542.151          36.332  
R20  20432581.318   109262117.644        1863.601          32.028  
R21  22979481.636   122967924.591        4650.773          37.999  
> 2019  5 20  8 24 11.0002636  0 24
C12  25261737.763                       -2525.546          24.221  
C13  38894554.860   202534181.285        1636.158          29.860  
C20  25748609.109   134079804.404         238.160          25.446  
C23  22379257.263   116534664.635        1527.489          37.815  
C25  22212285.155   115665199.866       -1262.987          39.191  
E03                                                                  25541934.886   134223804.240       -1370.746          38.085    25541941.182   100232062.042       -1023.603          35.146  
E08                                                                  24901454.682   130858241.518        1207.606          33.084  
E11                                                                  24875051.060   130719375.779        3112.631          32.152    24875042.067    97615008.124        2324.435          28.339  
E12                                                                  23445149.860   123205051.769        1030.713          30.069    23445145.064    92003779.396         769.634          28.884  
E25                                                                  23148228.815   121644768.719        1034.061          39.587    23148232.712    90838635.671         772.157          41.191  
G06  23945540.048   125834703.192        2728.654          34.428    23945547.542    93967462.552        2037.545          30.766  
G12  20784624.304   109223929.244        1959.275          46.279  
G13  25264162.484                       -3851.926          23.844  
G15  23665247.890   124361718.930       -3420.691          41.980  
G17  22863876.268   120150465.081       -2333.623          41.739  
G19  21180659.435   111305164.5141      -1063.005          30.194  
G24  20192319.548   106111364.608         -79.420          43.609    20192318.049    79238990.112         -59.299          45.621  
G25  23964086.108                        3371.227          25.005  
G32  24421802.038   128337535.626        2978.672          25.606  
R01  21769021.320                       -2019.970          20.663  
R02  22895152.416   122172775.055        2247.038          33.703  
R10  19539998.141   104159149.289        -542.611          36.985  
R20  20432262.339   109260415.468        1862.488          31.786  
R21  22978653.609   122963434.447        4650.569          36.575  
> 2019  5 20  8 24 12.0002636  0 25
C12  25262221.928   131546904.6161      -2525.788          24.818  
C13  38894239.179   202532545.395        1635.889          29.379  
C20  25748567.737                         237.122          25.908  
C23  22378960.768   116533137.484        1527.151          36.877  
C25  22212530.085   115666463.272       -1263.406          39.308  
E03                                                                  25542195.106   134225175.560       -1371.320          38.246    25542203.500   100233086.134       -1024.091          35.001  
E08                                                                  24901224.441   130857034.446        1207.072          32.976  
E11                                                                  24874457.172   130716263.330        3112.449          32.177    24874449.077    97612683.981        2324.143          28.033  
E12                                                                  23444953.496   123204021.604        1030.165          30.360    23444947.800    92003010.127         769.269          28.554  
E25                                                                  23148032.750   121643735.031        1033.688          39.452    23148036.048    90837863.763         771.909          40.831  
G02  25052050.926   131649355.9741       3051.560          28.971  
G06  23945021.407   125831975.135        2728.057          34.862    23945028.602    93965425.211        2037.341          31.368  
G12  20784252.561   109221970.502        1958.742          46.377  
G13  25264902.372                       -3851.892          23.985  
G15  23665897.540   124365139.860       -3420.930          42.287  
G17  22864320.260   120152799.210       -2334.129          40.615  
G19  21180864.792                       -1064.095          29.921  
G24  20192333.039   106111444.655         -80.048          43.848    20192333.039    79239049.908         -59.795          46.356  
G25  23963443.353   125928779.2061       3371.509          23.440  
G32  24421229.135   128334557.472        2978.154          25.428    24421228.535                        2223.727          22.811  
R01  21769368.780                       -2026.539          21.193  
R02  22894728.509   122170528.921        2246.134          32.782  
R10  19540088.378   104159692.580        -543.290          37.164  
R20  20431909.783   109258553.779        1861.689          31.199  
R21  22977783.611   122958784.152        4650.295          37.042  
> 2019  5 20  8 24 13.0002637  0 25
C12  25262742.367                       -2526.255          24.578  
C13  38893956.474   202531065.957        1635.549          29.113  
C20  25748550.050   134079486.2581        236.685          24.345  
C23  22378701.747   116531767.058        1526.535          36.574  
C25  22212798.699   115667883.270       -1263.888          38.396  
E03                                                                  25542488.004   134226705.116       -1372.015          37.309    25542493.999   100234228.240       -1024.462          36.992  
E08                                                                  24901023.880   130855985.636        1206.352          33.335  
E11                                                                  24873895.061   130713308.917        3111.955          32.591    24873886.067    97610477.699        2323.926          28.215  
E12                                                                  23444788.910   123203149.784        1029.362          30.373    23444782.315    92002359.066         768.706          28.944  
E25                                                                  23147866.965   121642859.292        1033.281          40.139    23147869.064    90837209.812         771.596          39.999  
G02  25051496.310   131646462.065        3051.451          28.376  
G06  23944533.644   125829405.115        2727.562          35.136    23944540.240    93963506.166        2036.690          31.757  
G12  20783908.699   109220169.941        1958.103          46.430  
G13  25265659.348                       -3851.283          23.947  
G15  23666575.071   124368718.783       -3421.381          45.681  
G17  22864790.935   120155291.514       -2334.762          41.051  
G19  21181097.132   111307449.8361      -1064.168          30.104  
G24  20192378.907   106111683.032         -80.835          43.221    20192378.607    79239227.909         -60.357          46.113  
G25  23962830.578                        3369.938          22.796  
G32                                                                  24420688.309                        2223.989          21.965  
R01  21769799.282                       -2029.806          20.189  
R02  22894324.989   122168443.707        2245.189          33.825  
R10  19540226.583   104160396.242        -543.857          36.759  
R20  20431591.404   109256853.551        1860.541          31.739  
R21  22976951.687   122954294.699        4649.878          37.085  
> 2019  5 20  8 24 14.0002637  0 25
C12  25263237.025   131552113.7541      -2526.720          25.321  
C13  38893640.793   202529430.762        1635.194          28.214  
C20  25748516.773   134079250.011         236.247          24.954  
C23  22378410.049   116530240.752        1526.306          36.051  
C25  22213043.630   115669147.593       -1264.323          38.524  
E03                                                                  25542748.223   134228077.426       -1372.310          37.181    25542754.819   100235253.113       -1024.872          35.638  
E05                                                                  27293850.660                       -2963.399          30.108  
E08                                                                  24900798.436   130854779.817        1205.818          33.301  
E11                                                                  24873296.675   130710197.069        3111.848          31.933    24873294.576    97608153.946        2323.753          28.353  
E12                                                                  23444589.848   123202120.841        1028.943          30.981    23444585.951    92001590.698         768.368          28.675  
E25                                                                  23147670.601   121641826.271        1033.021          40.511    23147672.999    90836438.388         771.424          40.302  
G02  25050911.715   131643410.914        3051.151          26.892  
G06  23944016.802   125826677.951        2727.164          35.361    23944020.999    93961469.686        2036.480          32.492  
G12  20783536.657   109218212.311        1957.630          45.612  
G13  25266388.143   132775842.9161      -3851.602          24.500  
G15  23667226.820   124372140.304       -3421.522          45.467  
G17  22865239.124   120157626.768       -2335.255          40.405  
G24  20192392.697   106111764.488         -81.456          41.872    20192394.196    79239288.731         -60.821          44.933  
G25  23962196.517   125922194.8271       3370.886          25.342    23962195.018    94032828.2971       2517.243          22.056  
G32                                                                  24420120.502                        2223.224          21.319  
R01  21770168.926                       -2029.668          20.032  
R02  22893907.977   122166199.294        2244.413          33.909  
R10  19540324.315   104160940.660        -544.418          36.742  
R20  20431241.546   109254993.943        1859.608          32.203  
R21  22976068.499   122949645.071        4649.628          36.825  
> 2019  5 20  8 24 15.0002638  0 24
C12  25263759.563   131554796.985       -2527.121          25.683  
C13  38893349.994   202527951.861        1635.011          27.974  
C20  25748498.485                         239.878          21.965  
C25  22213314.342   115670568.457       -1264.754          38.011  
E03                                                                  25543041.720   134229607.939       -1372.971          34.195    25543046.217   100236395.922       -1025.165          32.074  
E05                                                                  27294447.247                       -2963.299          30.018    27294447.847   107109238.3961      -1969.889          26.766  
E08                                                                  24900595.476   130853732.044        1205.315          33.931  
E11                                                                  24872736.363   130707243.041        3111.570          31.745    24872732.166    97605948.094        2323.497          28.303  
E12                                                                  23444424.063   123201250.118        1028.265          30.916    23444422.264    92000940.474         767.870          29.021  
E25                                                                  23147504.216   121640951.057        1032.756          40.184    23147506.015    90835784.885         771.148          39.757  
G02  25050354.401                        3051.355          25.657  
G06  23943528.140   125824108.803        2726.690          35.651    23943531.438    93959551.137        2036.194          32.316  
G12  20783192.795   109216412.775        1957.078          44.225  
G13  25267150.516                       -3851.392          22.846  
G15  23667905.550   124375719.671       -3421.825          45.773  
G17  22865710.998   120160120.012       -2335.702          40.119  
G24  20192440.364   106112004.084         -82.053          41.311    20192439.465    79239467.624         -61.248          44.406  
G25  23961585.540   125918981.764        3370.606          26.156  
G32  24419578.777   128325941.2971       2976.547          25.439    24419584.473                        2222.521          20.787  
R01  21770597.329                       -2032.057          15.324  
R02  22893511.352   122164115.783        2243.486          33.594  
R10  19540458.022   104161645.436        -544.969          36.772  
R20  20430919.868   109253295.689        1858.566          32.386  
R21  22975234.176   122945156.114        4649.382          36.842  
> 2019  5 20  8 24 16.0002639  0 25
C12  25264270.110   131557480.598       -2527.504          26.619  
C13  38893069.089   202526473.164        1634.806          26.879  
C20  25748472.703                         238.305          21.889  
C23  22377872.521   116527501.3631       1525.637          36.269  
C25  22213584.755   115671989.670       -1265.103          37.762  
E02                                                                                                                                  27338810.835                        1863.731          23.515  
E03                                                                  25543332.819   134231138.976       -1373.495          37.592    25543336.716   100237539.318       -1025.751          32.783  
E05                                                                  27295036.939   143436398.3761      -2964.503          30.422    27295039.637   107111569.507       -2213.466          29.104  
E08                                                                  24900400.312   130852684.824        1204.762          33.364  
E11                                                                  24872173.952   130704289.240        3111.343          32.160    24872168.856    97603742.288        2323.451          27.511  
E12                                                                  23444258.877   123200379.822        1027.837          31.305    23444255.280    92000290.586         767.532          28.940  
E25                                                                  23147337.232   121640076.164        1032.435          38.559    23147340.829    90835131.512         771.018          40.161  
G06  23943039.778   125821539.912        2726.433          35.297    23943041.877    93957632.860        2035.922          32.124  
G12  20782851.631   109214613.643        1956.675          45.306  
G13  25267915.286                       -3848.211          22.764  
G15  23668587.578   124379299.243       -3422.029          45.786  
G17  22866188.567   120162613.761       -2336.207          40.909  
G24  20192485.333   106112244.223         -82.597          42.473    20192485.333    79239646.966         -61.697          45.392  
G25  23960967.967   125915768.830        3370.476          24.198  
G32                                                                  24419050.843                        2222.955          23.088  
R01  21771096.484                       -2030.396          18.787  
R02  22893112.328   122162032.988        2242.770          32.079  
R10  19540602.822   104162350.704        -545.463          37.225  
R20  20430611.982   109251598.317        1857.685          31.822  
R21  22974394.158   122940667.391        4649.147          37.334  
> 2019  5 20  8 24 17.0002639  0 24
C12  25264755.174   131560008.388       -2527.790          27.545  
C13  38892754.606   202524838.444        1634.721          27.750  
C20  25748441.225                         232.780          22.651  
C23  22377583.821   116525976.009        1525.354          36.606  
C25  22213827.587   115673255.026       -1265.355          37.368  
E02                                                                                                                                  27338341.060   107281383.2541       1864.056          22.334  
E03                                                                  25543596.036   134232512.773       -1373.798          37.557    25543600.533   100238565.312       -1025.994          34.838  
E05                                                                  27295599.949   143439362.602       -2964.226          30.990    27295604.446   107113782.941       -2213.434          29.945  
E08                                                                  24900169.172   130851480.422        1204.403          31.901  
E11                                                                  24871580.363   130701177.977        3111.263          31.914    24871576.766    97601418.909        2323.380          27.577  
E12                                                                  23444058.916   123199352.523        1027.299          30.460    23444058.916    91999523.453         767.133          28.560  
E25                                                                  23147140.268   121639043.917        1032.247          39.325    23147142.367    90834360.636         770.876          39.588  
G06  23942521.437   125818813.810        2726.103          35.278    23942522.936    93955597.058        2035.802          32.467  
G12  20782478.689   109212657.382        1956.260          46.157  
G15  23669239.027   124382721.383       -3422.141          45.380  
G17  22866634.059   120164950.367       -2336.606          41.053  
G19  21181965.630   111312031.5221      -1067.618          29.096  
G24  20192500.922   106112327.397         -83.174          42.669    20192501.522    79239709.110         -62.144          45.883  
G25  23960329.709   125912398.429        3370.401          25.399  
G32  24418485.135   128320145.9231       2976.612          23.411    24418486.633                        2221.914          22.102  
R02  22892692.319   122159790.981        2242.007          30.978  
R10  19540704.752   104162896.676        -545.971          37.291  
R20  20430265.721   109249741.519        1856.798          30.589  
R21  22973523.860   122936018.385        4649.007          37.616  
> 2019  5 20  8 24 18.0002640  0 24
C12  25265274.414   131562692.729       -2528.231          27.180  
C13  38892467.105   202523360.029        1634.525          26.921  
C20  25748419.340                         231.784          21.282  
C23  22377327.499   116524607.183        1524.936          35.392  
C25  22214100.998   115674676.862       -1265.726          37.627  
E02                                                                                                                                  27337893.470   107279636.866        1864.034          22.767  
E03                                                                  25543885.636   134234044.461       -1374.146          37.777    25543890.732   100239709.143       -1026.186          34.297  
E05                                                                  27296194.738   143442484.390       -2964.246          31.060    27296198.635   107116114.217       -2213.631          30.194  
E08                                                                  24899971.309   130850434.057        1203.907          31.774  
E11                                                                  24871014.055   130698224.403        3111.116          32.021    24871015.254    97599213.375        2323.178          28.026  
E12                                                                  23443892.531   123198483.231        1026.834          30.458    23443895.229    91998874.321         766.777          28.914  
E25                                                                  23146977.181   121638169.302        1032.157          40.003    23146978.081    90833707.562         770.719          40.835  
G06  23942030.677   125816245.620        2725.731          35.869    23942034.275    93953679.301        2035.402          32.167  
G12  20782133.029   109210859.049        1955.875          45.555  
G15  23669921.354   124386301.210       -3422.284          45.624  
G17  22867107.731   120167444.861       -2336.953          41.550  
G24  20192546.191   106112568.678         -83.739          42.545    20192547.091    79239889.252         -62.497          45.754  
G25  23959706.740                        3369.518          25.851    23959720.231                        2515.649          23.492  
G32                                                                  24417945.808    95821279.6791       2221.009          22.409  
R01  21771852.260                       -2027.591          25.298  
R02  22892291.796   122157709.551        2241.405          29.996  
R10  19540837.560   104163602.807        -546.326          38.394  
R20  20429944.344   109248045.930        1855.901          30.046  
R21  22972685.940   122931530.003        4648.807          37.847  
> 2019  5 20  8 24 19.0002640  0 25
C12  25265756.181   131565221.288       -2528.559          26.734  
C13  38892155.621   202521725.813        1634.216          27.049  
C20  25748368.675                         233.589          22.568  
C23  22377027.406   116523082.481        1524.703          35.217  
C25  22214343.230   115675942.955       -1266.094          38.223  
E02                                                                                                                                  27337416.500   107277772.943        1863.923          23.317  
E03                                                                  25544149.453   134235419.254       -1374.794          38.343    25544152.151   100240735.624       -1026.481          33.825  
E05                                                                  27296750.553   143445448.741       -2964.351          30.476    27296761.645   107118327.872       -2213.655          29.899  
E08                                                                  24899742.867   130849230.646        1203.411          32.746  
E11                                                                  24870423.764   130695113.524        3110.880          31.910    24870422.865    97596890.257        2323.118          28.183  
E12                                                                  23443697.966   123197456.971        1026.261          30.626    23443699.465    91998107.929         766.392          29.183  
E25                                                                  23146778.719   121637137.462        1031.840          39.676    23146779.918    90832937.031         770.531          40.292  
G06  23941512.336   125813520.301        2725.319          35.742    23941515.034    93951644.178        2035.123          32.388  
G12  20781766.083   109208903.627        1955.422          46.140  
G13  25270149.939                       -3852.652          21.297  
G15  23670572.803   124389723.753       -3422.543          45.634  
G17  22867552.323   120169782.376       -2337.514          41.464  
G19  21182393.734   111314325.9581      -1068.562          28.662  
G24  20192562.380   106112652.984         -84.305          43.682    20192563.279    79239952.234         -62.982          45.770  
G32                                                                  24417384.896    95819058.001        2221.678          23.677  
R01  21772232.697                       -2028.369          26.768  
R02  22891869.988   122155469.155        2240.397          30.915  
R10  19540934.393   104164149.672        -546.865          37.067  
R20  20429591.788   109246190.996        1854.935          30.205  
R21  22971825.536   122926881.331        4648.672          38.057  
> 2019  5 20  8 24 20.0002641  0 24
C12  25266268.826   131567906.579       -2529.181          27.388  
C13  38891869.919   202520248.035        1633.888          26.637  
C20  25748344.092                         231.174          22.144  
C25  22214611.844   115677365.721       -1266.657          36.621  
E02                                                                                                                                  27336975.206   107276026.812        1863.776          23.038  
E03                                                                  25544441.451   134236952.171       -1375.374          38.037    25544445.348   100241880.351       -1027.082          34.968  
E05                                                                  27297347.140   143448570.966       -2964.683          30.664    27297357.333   107120659.392       -2213.875          30.054  
E08                                                                  24899546.203   130848185.559        1202.628          32.793  
E11                                                                  24869859.255   130692160.606        3110.460          32.270    24869861.053    97594685.245        2322.657          28.397  
E12                                                                  23443533.380   123196588.911        1025.602          31.083    23443534.879    91997459.813         765.761          29.075  
E25                                                                  23146612.634   121636263.673        1031.331          39.846    23146614.132    90832284.524         770.152          40.620  
G06  23941029.070   125810953.087        2724.756          35.500    23941026.972    93949727.030        2034.793          32.562  
G12  20781420.422   109207106.513        1954.656          46.166  
G13  25270910.513                       -3851.548          21.617  
G15  23671254.531   124393304.259       -3422.964          45.648  
G17  22868025.995   120172278.076       -2338.159          41.288  
G19  21182634.467   111315553.469       -1069.969          29.050  
G24  20192612.745   106112895.640         -85.115          44.178    20192609.447    79240133.401         -63.521          45.801  
G32                                                                  24416847.668                        2221.139          24.139  
R01  21772656.004                       -2031.384          27.701  
R02  22891468.866   122153389.854        2239.276          29.978  
R10  19541078.893   104164857.118        -547.639          37.652  
R20  20429266.513   109244497.495        1853.813          30.420  
R21  22970983.119   122922393.598        4648.158          37.908  
> 2019  5 20  8 24 21.0002642  0 24
C12  25266785.368   131570592.290       -2529.601          27.675  
C13  38891587.214   202518770.505        1633.639          26.620  
C20  25748336.298                         230.257          19.647  
C25  22214887.354   115678788.824       -1266.993          36.648  
E02                                                                                                                                  27336531.813   107274280.899        1863.557          22.556  
E03                                                                  25544733.149   134238485.563       -1375.851          38.111    25544736.447   100243025.377       -1027.380          34.848  
E05                                                                  27297944.626   143451693.223       -2964.714          31.204    27297950.022   107122990.943       -2213.907          30.127  
E08                                                                  24899341.145   130847140.849        1202.252          32.719  
E11                                                                  24869296.244   130689207.809        3110.339          32.004    24869299.842    97592480.127        2322.763          28.352  
E12                                                                  23443366.995   123195721.442        1025.011          31.454    23443369.393    91996811.975         765.483          29.126  
E25                                                                  23146446.548   121635390.039        1031.175          39.836    23146448.647    90831632.140         770.028          40.636  
G06  23940537.711   125808386.156        2724.473          35.373    23940538.310    93947810.197        2034.478          32.582  
G12  20781079.858   109205309.758        1954.297          46.063  
G13  25271676.183                       -3851.077          21.008  
G15  23671936.859   124396884.877       -3423.075          45.711  
G17  22868503.864   120174774.205       -2338.586          40.983  
G19  21182864.108   111316781.710       -1070.699          30.208  
G24  20192657.114   106113138.809         -85.627          43.962    20192655.915    79240314.979         -63.933          45.672  
G32  24416305.044   128308719.4121       2974.063          30.416    24416311.040    95814851.2031       2220.865          23.500  
R01  21773064.921   116389615.3471      -2031.039          28.557  
R02  22891064.746   122151311.125        2238.704          28.841  
R10  19541207.204   104165564.980        -548.056          38.516  
R20  20428950.832   109242804.865        1852.943          30.317  
R21  22970145.199   122917905.969        4648.054          37.541  
> 2019  5 20  8 24 22.0002642  0 23
C12  25267265.336   131573122.223       -2529.933          27.588  
C13  38891270.933                        1633.117          26.260  
C20  25748280.836                         233.664          19.498  
C23  22376213.470   116518823.0861       1523.475          35.841  
E02                                                                                                                                  27336054.243   107272417.366        1863.533          22.987  
E03                                                                  25544993.669   134239861.943       -1376.380          37.926    25544998.466   100244053.185       -1027.808          34.426  
E05                                                                  27298507.936   143454658.157       -2964.934          30.906    27298514.831   107125205.040       -2214.096          30.000  
E08                                                                  24899113.902   130845939.179        1201.670          32.003  
E11                                                                  24868703.255   130686097.790        3110.019          31.927    24868707.752    97590157.810        2322.317          28.218  
E12                                                                  23443170.631   123194697.015        1024.427          30.462    23443174.228    91996046.935         765.040          29.305  
E25                                                                  23146251.084   121634359.216        1030.824          40.112    23146251.983    90830862.366         769.774          40.575  
G06  23940013.973   125805662.200        2723.955          35.034    23940021.468    93945776.057        2034.139          32.566  
G12  20780704.817   109203356.019        1953.739          45.548  
G15  23672586.509   124400308.286       -3423.409          45.650  
G17  22868946.658   120177113.298       -2339.093          41.098  
G19  21183067.368   111317853.279       -1071.569          29.925  
G24  20192674.203   106113225.102         -86.293          43.943    20192672.104    79240379.427         -64.448          45.692  
G32  24415743.832   128305745.900        2973.512          30.981    24415746.830    95812630.722        2220.481          23.316  
R01  21773461.246   116391647.197       -2031.850          28.840  
R02  22890648.034   122149073.400        2237.725          27.986  
R10  19541305.236   104166113.620        -548.640          38.411  
R20  20428623.158                        1851.443          29.748  
R21  22969278.799   122913258.259        4647.710          38.210  
> 2019  5 20  8 24 23.0002643  0 24
C12  25267782.178   131575808.698       -2530.365          28.447  
C13  38890981.034                        1631.839          25.116  
C20  25748263.448                         233.848          18.897  
C23  22375950.852   116517456.037        1523.159          35.326  
C25  22215402.997   115681480.2371      -1267.866          36.659  
E02                                                                                                                                  27335611.750   107270671.641        1863.371          23.190  
E03                                                                  25545286.566   134241396.347       -1376.862          37.603    25545289.864   100245199.019       -1028.189          34.473  
E05                                                                  27299101.525   143457780.811       -2965.112          31.077    27299108.720   107127536.859       -2214.175          29.908  
E08                                                                  24898916.639   130844895.650        1201.071          32.197  
E11                                                                  24868141.444   130683145.532        3109.800          31.451    24868146.241    97587953.109        2322.346          28.271  
E12                                                                  23443005.445   123193830.723        1023.835          30.112    23443010.242    91995400.088         764.492          29.645  
E25                                                                  23146086.198   121633486.250        1030.508          40.841    23146085.898    90830210.465         769.546          40.542  
G06  23939526.511   125803096.192        2723.550          34.474    23939532.207    93943859.902        2033.801          32.176  
G12  20780363.054   109201560.341        1953.219          45.407  
G15  23673270.036   124403889.486       -3423.658          45.514  
G17  22869419.430   120179610.443       -2339.602          41.001  
G19  21183302.705   111319083.146       -1072.326          30.458  
G24  20192722.769   106113469.570         -86.926          44.443    20192718.572    79240561.979         -64.908          45.542  
G32  24415210.202   128302930.448        2972.994          32.144    24415209.902    95810528.260        2220.107          23.482  
R01  21773860.570   116393840.145       -2032.692          30.810  
R02  22890249.910   122146996.470        2236.905          27.883  
R10  19541435.646   104166822.559        -549.133          38.477  
R20  20428302.680   109239262.3261       1850.956          28.856  
R21  22968435.783   122908771.265        4647.419          38.676  
> 2019  5 20  8 24 24.0002643  0 24
C12  25268266.643   131578339.427       -2530.729          28.966  
C13  38890665.053   202514027.0721       1633.038          24.925  
C20  25748225.075                         228.801          19.727  
C23  22375658.554   116515933.079        1522.958          36.040  
C25  22215646.728   115682748.301       -1268.064          36.060  
E02                                                                                                                                  27335133.281   107268808.159        1863.482          23.499  
E03                                                                  25545547.386   134242773.551       -1377.204          37.571    25545552.182   100246227.491       -1028.473          34.845  
E05                                                                  27299667.533   143460745.877       -2965.066          31.367    27299674.129   107129751.048       -2214.189          30.098  
E08                                                                  24898690.895   130843694.959        1200.692          32.499  
E11                                                                  24867542.159   130680035.772        3109.761          31.179    24867553.551    97585630.870        2322.239          27.598  
E12                                                                  23442811.180   123192807.365        1023.358          29.863    23442816.276    91994635.816         764.273          29.974  
E25                                                                  23145891.033   121632455.830        1030.419          40.946    23145889.834    90829440.983         769.483          41.007  
G06  23939006.970   125800372.885        2723.308          34.380    23939013.866    93941826.237        2033.664          32.742  
G12  20779991.311   109199607.445        1952.896          45.427  
G15  23673922.085   124407313.196       -3423.711          45.533  
G17  22869867.021   120181950.362       -2339.920          40.648  
G19  21183511.360   111320156.183       -1073.037          31.144  
G24  20192736.260   106113556.928         -87.358          44.345    20192735.360    79240627.203         -65.224          45.603  
G32  24414642.994   128299957.725        2972.723          32.568    24414644.194    95808308.473        2219.787          24.523  
R01  21774225.118   116395873.508       -2033.363          30.858  
R02  22889831.999   122144760.234        2236.236          27.525  
R10  19541547.168   104167372.114        -549.554          39.157  
R20  20427956.120   109237412.173        1850.153          28.787  
R21  22967573.580   122904123.913        4647.351          38.460  
> 2019  5 20  8 24 25.0002644  0 25
C12  25268779.288   131581024.649       -2529.113          29.645  
C13  38890379.051                        1635.707          24.833  
C20  25748210.984                         227.008          19.275  
C23  22375395.336   116514564.631        1524.558          36.330  
C25  22215921.338   115684170.916       -1266.505          35.544  
E02                                                                                                                                  27334689.588   107267060.838        1864.966          22.957  
E03                                                                  25545839.383   134244306.806       -1375.712          37.627    25545843.281   100247372.402       -1027.265          35.048  
E05                                                                  27300254.827   143463866.661       -2963.242          30.687    27300268.318   107132081.470       -2212.777          30.505  
E08                                                                  24898484.638   130842650.274        1202.227          31.183  
E11                                                                  24866986.044   130677081.770        3111.544          32.345    24866992.040    97583425.005        2323.510          27.428  
E12                                                                  23442646.893   123191939.986        1024.921          30.060    23442650.491    91993988.127         765.333          29.950  
E25                                                                  23145724.348   121631581.233        1032.139          40.980    23145723.449    90828787.885         770.743          40.974  
G06  23938515.610   125797805.522        2724.904          34.045    23938527.003    93939909.071        2034.811          33.222  
G12  20779648.049   109197810.558        1954.429          45.459  
G13  25274687.598                       -3849.263          21.089  
G15  23674602.614   124410892.677       -3421.939          45.855  
G17  22870342.192   120184446.324       -2338.420          40.293  
G19  21183746.098   111321385.470       -1071.745          31.777  
G24  20192785.426   106113800.445         -85.975          44.463    20192781.528    79240809.053         -64.205          45.678  
G32  24414106.066   128297140.984        2974.283          33.896    24414109.364    95806204.991        2221.127          24.456  
R01  21774641.829   116398065.875       -2032.110          30.840  
R02  22889450.963   122142682.696        2237.514          27.662  
R10  19541680.276   104168079.938        -548.018          39.326  
R20  20427652.430   109235721.214        1851.272          29.484  
R21  22966727.266   122899635.214        4649.124          38.878  
> 2019  5 20  8 24 26.0002645  0 24
C12  25269294.931   131583708.597       -2527.838          29.245  
C13  38890094.248   202511068.1871       1636.290          24.967  
C20  25748204.989                         232.116          21.699  
C23  22375135.116   116513194.817        1525.924          36.897  
E02                                                                                                                                  27334245.596   107265312.510        1865.973          23.014  
E03                                                                  25546130.482   134245838.821       -1374.474          37.414    25546136.178   100248516.462       -1026.415          34.897  
E05                                                                  27300853.512   143466985.805       -2961.602          30.969    27300861.307   107134410.728       -2211.613          30.337  
E08                                                                  24898287.374   130841604.466        1203.350          30.588  
E11                                                                  24866422.434   130674126.334        3112.978          31.990    24866429.629    97581218.018        2324.632          27.887  
E12                                                                  23442486.804   123191071.430        1026.098          30.881    23442485.005                         766.336          30.095  
E25                                                                  23145558.563   121630705.208        1033.568          40.799    23145557.664    90828133.726         771.803          40.897  
G06  23938023.651   125795236.863        2726.201          33.435    23938037.142    93937990.886        2035.830          33.485  
G12  20779308.684   109196012.491        1955.609          45.340  
G13  25275454.167                       -3845.135          19.540  
G15  23675285.241   124414470.696       -3420.476          45.918  
G17  22870814.065   120186941.048       -2337.181          40.163  
G19  21183985.932   111322613.837       -1070.825          32.341  
G24  20192832.793   106114042.850         -84.863          44.618    20192827.696    79240990.068         -63.370          45.692  
G32  24413572.136   128294323.010        2975.516          33.467    24413575.134                        2222.614          24.929  
R01  21775049.547   116400257.343       -2031.213          31.041  
R02  22889073.824   122140604.217        2238.453          28.095  
R10  19541819.080   104168786.558        -546.814          39.690  
R20  20427336.749   109234029.579        1851.947          29.617  
R21  22965898.339   122895144.995        4650.644          38.408  
> 2019  5 20  8 24 27.0002645  0 24
C12  25269777.297   131586235.844       -2527.247          29.529  
C13  38889780.965                        1639.742          24.816  
C20  25748172.311                         231.973          23.021  
C23  22374841.919   116511668.306        1526.510          36.810  
C25  22216439.079   115686856.8501      -1264.640          36.414  
E02                                                                                                                                  27333771.024   107263445.769        1866.741          23.320  
E03                                                                  25546393.100   134247212.858       -1374.036          37.439    25546397.597   100249542.525       -1026.063          35.176  
E05                                                                  27301418.321   143469946.579       -2960.774          31.121    27301424.917   107136621.697       -2210.969          30.398  
E08                                                                  24898055.635   130840400.661        1203.805          29.500  
E11                                                                  24865830.644   130671012.550        3113.784          32.082    24865836.939    97578892.786        2325.232          28.227  
E12                                                                  23442292.239   123190045.040        1026.390          31.042    23442290.440    91992573.1331        766.469          30.108  
E25                                                                  23145361.600   121629670.940        1034.268          40.880    23145359.501    90827361.366         772.360          40.845  
G06  23937500.813   125792510.062        2726.801          32.756    23937517.901    93935954.639        2036.248          33.364  
G12  20778933.644   109194056.358        1956.134          45.203  
G15  23675935.791   124417890.414       -3419.718          46.034  
G17  22871258.357   120189277.746       -2336.699          40.314  
G19  21184194.587   111323684.454       -1070.618          32.909  
G24  20192847.183   106114127.350         -84.500          45.054    20192843.885    79241053.183         -63.115          45.697  
G32  24413001.631   128291346.963        2976.047          33.692    24413008.526    95801878.3631       2222.325          24.700  
R01  21775426.086   116402288.385       -2031.041          31.645  
R02  22888650.217   122138365.655        2238.562          29.371  
R10  19541913.515   104169332.903        -546.345          40.070  
R20  20426985.092   109232177.562        1852.017          29.308  
R21  22965023.845   122890493.583        4651.412          37.828  
> 2019  5 20  8 24 28.0002646  0 24
C12  25270289.942   131588920.278       -2528.324          29.372  
C13  38889493.764                        1635.025          25.477  
C20  25748156.422   134077398.6521        231.622          24.479  
