     3.03           OBSERVATION DATA    M: Mixed            RINEX VERSION / TYPE
Geo++ RINEX Logger  Geo++               20190520 080948 UTC PGM / RUN BY / DATE
************************************************************COMMENT
This file was generated by the Geo++ RINEX Logger App       COMMENT
for Android devices (Version   2.1). If you encounter       COMMENT
any issues, please send an email to android@geopp.de        COMMENT
************************************************************COMMENT
Geo++                                                       MARKER NAME
GEODETIC                                                    MARKER TYPE
Geo++               Geo++                                   OBSERVER / AGENCY
unknown             Xiaomi              MI 8                REC # / TYPE / VERS
unknown             MI 8                                    ANT # / TYPE
3995228.5548 1384965.2055 4759435.1561                      APPROX POSITION XYZ
        0.0000        0.0000        0.0000                  ANTENNA: DELTA H/E/N
G    8 C1C L1C D1C S1C C5Q L5Q D5Q S5Q                      SYS / # / OBS TYPES
R    4 C1C L1C D1C S1C                                      SYS / # / OBS TYPES
E   12 C1B L1B D1B S1B C1C L1C D1C S1C C5Q L5Q D5Q S5Q      SYS / # / OBS TYPES
C    4 C2I L2I D2I S2I                                      SYS / # / OBS TYPES
J    8 C1C L1C D1C S1C C5Q L5Q D5Q S5Q                      SYS / # / OBS TYPES
  2019     5    20     8    10    6.0211900     GPS         TIME OF FIRST OBS
 24 R01  1 R02 -4 R03  5 R04  6 R05  1 R06 -4 R07  5 R08  6 GLONASS SLOT / FRQ #
    R09 -2 R10 -7 R11  0 R12 -1 R13 -2 R14 -7 R15  0 R16 -1 GLONASS SLOT / FRQ #
    R17  4 R18 -3 R19  3 R20  2 R21  4 R22 -3 R23  3 R24  2 GLONASS SLOT / FRQ #
G L1C                                                       SYS / PHASE SHIFT
G L5Q -0.25000                                              SYS / PHASE SHIFT
R L1C                                                       SYS / PHASE SHIFT
E L1B                                                       SYS / PHASE SHIFT
E L1C +0.50000                                              SYS / PHASE SHIFT
E L5Q -0.25000                                              SYS / PHASE SHIFT
C L2I                                                       SYS / PHASE SHIFT
J L1C                                                       SYS / PHASE SHIFT
J L5Q -0.25000                                              SYS / PHASE SHIFT
 C1C    0.000 C1P    0.000 C2C    0.000 C2P    0.000        GLONASS COD/PHS/BIS
                                                            END OF HEADER
> 2019  5 20  8 10  6.0002119  3  1
Geo++                                                       MARKER NAME
> 2019  5 20  8 10  6.0002119  0 25
C12  24861393.116   129459797.6461      -2204.956          34.463  
C13  39155619.529   203893585.4841       1775.204          31.183  
C20  25809539.228                         702.029          24.754  
C23  22630106.803   117840904.4641       1755.206          38.520  
C25  22013873.213   114632014.3481       -986.713          34.914  
E03                                                                                                                                  25335457.028    99421774.3791       -743.156          35.956  
E11                                                                                                                                  25368687.523    99552178.4191       2401.627          29.127  
E12                                                                                                                                  23627931.523    92721077.7711       1072.026          37.013  
E25                                                                  23312697.355   122509050.9841       1207.875          37.307    23312700.054    91484041.7321        902.041          35.564  
G06  24388792.490   128163968.6121       2968.142          35.331  
G12  21111966.490   110944132.2131       2306.714          45.094  
G13  24629340.862   129428059.3641      -3835.955          34.263  
G15  23112480.962   121456907.1291      -3244.343          36.494  
G17  22502769.357   118252850.6531      -1951.184          42.285  
G19  21043030.713   110581872.0481       -446.243          30.243  
G24  20200140.833   106152456.3851        371.530          41.462    20200139.335    79269684.6021        277.448          37.531  
G25  24501524.647                        3508.052          20.397    24501481.477                        2617.442          19.412  
G28  25487033.594                       -2878.293          12.215  
R01  21485716.848   114853469.5391      -1348.681          27.802  
R02  23283807.256   124246856.9541       2847.798          38.190  
R08  22605619.755   121052067.0111      -3775.498          33.421  
R09  21514825.196   114887965.4751      -2648.353          39.937  
R10  19468476.954   103777936.5281       -161.037          42.867  
R11  21478982.610   114777170.1581       2923.607          37.551  
R19  21545885.794                       -1927.894          22.882  
> 2019  5 20  8 10  7.0002120  0 27
C12  24861848.201   129462159.691       -2205.935          35.154  
C13  39155312.541   203891967.212        1774.383          32.715  
C20  25809437.898                         701.978          25.528  
C23  22629798.017   117839306.263        1754.310          38.908  
C24  26067021.077   135737861.4561      -2735.214          32.945  
C25  22014092.361   114633158.177        -987.719          36.036  
E03                                                                                                                                  25335676.176    99422636.200        -744.177          36.697  
E11                                                                                                                                  25368105.626    99549894.872        2401.191          30.332  
E12                                                                                                                                  23627688.691    92720124.215        1071.201          37.351  
E25                                                                  23312497.094   122508001.526        1207.001          37.265    23312500.392    91483258.091         901.287          35.764  
G06  24388262.157   128161158.795        2967.360          34.647  
G12  21111556.973   110941984.184        2305.571          45.424  
G13  24630100.236   129432053.684       -3836.778          36.616  
G15  23113126.116   121460310.034       -3245.363          35.342  
G17  22503169.580   118254960.623       -1952.428          41.192  
G19  21043145.833   110582476.683        -447.093          29.402  
G24  20200101.860   106152243.601         370.326          41.387    20200098.563    79269525.767         276.481          37.033  
G25  24500879.494                        3505.643          21.378    24500842.919                        2612.022          19.587  
G28  25487604.698                       -2882.372          12.682  
G32  24909025.341   130897800.3961       3272.372          25.205  
R01  21485997.753   114854979.938       -1350.143          29.385  
R02  23283303.305   124244170.410        2846.519          37.992  
R08  22606357.544   121056004.046       -3776.497          33.931  
R09  21515369.320   114890774.842       -2649.280          38.727  
R10  19468537.812   103778258.514        -162.180          43.540  
R11  21478459.472   114774407.696        2922.662          36.485  
R19  21546302.205                       -1932.499          20.713  
> 2019  5 20  8 10  8.0002120  0 24
C12  24862272.707   129464366.430       -2206.739          37.587  
C13  39154971.677   203890193.442        1773.769          35.059  
C20  25809301.492   134395788.5501        704.777          25.564  
C23  22629463.149   117837552.581        1753.683          38.757  
C25  22014286.027   114634146.533        -988.357          35.645  
E03                                                                                                                                  25335865.945    99423380.887        -744.687          34.702  
E11                                                                                                                                  25367494.949    99547494.138        2400.735          30.274  
E12                                                                                                                                  23627416.780    92719053.652        1070.563          37.482  
E25                                                                  23312268.652   122506795.048        1206.477          36.863    23312271.950    91482357.174         900.917          35.119  
G06  24387695.849   128158192.123        2966.672          31.625  
G12  21111121.974   110939679.355        2304.829          45.300  
G13  24630829.931   129435890.780       -3837.096          34.109  
G15  23113731.996   121463555.979       -3245.945          34.806  
G17  22503541.922   118256913.869       -1953.245          39.000  
G19  21043209.989   110582925.969        -449.286          32.314  
G24  20200031.709   106151874.184         369.417          41.521    20200029.910    79269249.905         275.861          37.955  
G25                                                                  24500176.481                        2613.260          18.199  
R01  21486255.875   114856331.449       -1351.510          29.308  
R02  23282776.569   124241325.017        2845.393          38.884  
R08  22607042.870   121059781.304       -3777.258          35.222  
R09  21515859.780   114893424.792       -2649.950          36.602  
R10  19468554.001   103778421.510        -162.995          44.213  
R11  21477921.644   114771485.696        2922.000          36.955  
R19  21546609.493                       -1929.356          25.087  
> 2019  5 20  8 10  9.0002121  0 27
C12  24862726.593   129466729.933       -2207.394          38.007  
C13  39154660.193   203888576.127        1773.425          33.302  
C20  25809195.366                         703.655          25.223  
C23  22629156.461   117835955.462        1753.228          38.806  
C24  26068099.130   135743489.6161      -2736.142          30.228  
C25  22014504.276   114635291.590        -988.947          36.252  
E03                                                                                                                                  25336085.693    99424243.645        -745.113          34.778  
E11                                                                                                                                  25366912.752    99545211.236        2400.546          31.695  
E12                                                                                                                                  23627173.348    92718101.260        1070.036          36.863  
E25                                                                  23312068.691   122505746.619        1205.972          37.986    23312072.288    91481574.208         900.611          36.613  
G06  24387156.823   128155383.442        2966.223          32.496  
G10  24878955.258                       -1672.939          22.255  
G12  21110711.858   110937532.631        2304.266          43.670  
G13  24631590.205   129439885.702       -3837.380          39.654  
G15  23114389.741   121466959.793       -3246.272          40.772  
G17  22503943.944   118259025.198       -1953.788          38.709  
G19  21043325.709                        -452.941          29.969  
G24  20199990.338   106151663.054         368.672          41.389    20199989.738    79269092.222         275.329          37.429  
G25                                                                  24499538.223                        2614.924          17.161  
G32  24907804.586   130891414.9321       3271.246          25.682  
R01  21486544.575   114857844.126       -1352.421          28.917  
R02  23282266.922   124238640.297        2844.696          38.617  
R08  22607782.458   121063719.579       -3777.738          35.440  
R09  21516385.916   114896235.179       -2650.299          37.818  
R10  19468619.055   103778744.908        -163.592          44.121  
R11  21477400.905   114768724.168        2921.728          36.795  
R19  21547003.120                       -1929.427          25.072  
> 2019  5 20  8 10 10.0002122  0 25
C12  24863179.879   129469093.895       -2207.852          37.291  
C13  39154349.308   203886959.151        1773.086          33.842  
C20  25809091.937   134394693.4691        703.325          25.774  
C23  22628850.673   117834358.682        1752.890          39.957  
C24  26068654.046   135746382.045       -2736.319          29.891  
C25  22014722.525   114636437.066        -989.366          37.545  
E03                                                                                                                                  25336306.940    99425106.891        -745.601          35.856  
E11                                                                                                                                  25366330.555    99542928.523        2400.358          31.846  
E12                                                                                                                                  23626930.816    92717149.233        1069.672          36.768  
E25                                                                  23311868.130   122504698.494        1205.667          38.217    23311871.727    91480791.487         900.366          36.470  
G06  24386627.089   128152575.058        2965.926          31.978  
G12  21110302.642   110935386.494        2303.679          43.363  
G13  24632348.980   129443880.809       -3837.565          39.942  
G15  23115036.993   121470364.141       -3246.806          41.010  
G17  22504345.965   118261137.399       -1954.659          38.602  
G19  21043435.133   110584141.4081       -450.529          28.948  
G24  20199954.662   106151452.560         368.035          41.118    20199949.866    79268935.035         274.831          39.531  
G32  24907207.399   130888301.702        3270.772          25.490  
R01  21486825.180   114859357.806       -1353.423          29.802  
R02  23281768.367   124235956.503        2843.769          39.240  
R08  22608519.348   121067658.334       -3778.218          35.588  
R09  21516906.056   114899046.008       -2650.742          38.898  
R10  19468679.014   103779068.942        -164.228          44.720  
R11  21476898.153   114765963.090        2921.278          37.453  
R19  21547389.553   115264166.5831      -1931.236          25.859  
> 2019  5 20  8 10 11.0002122  0 25
C12  24863602.286   129471302.227       -2208.332          38.034  
C13  39154006.645   203885186.127        1773.024          34.025  
C20  25808954.932   134393990.700         702.769          25.835  
C23  22628513.406   117832606.174        1752.508          38.396  
C24  26069179.583   135749118.585       -2736.539          28.997  
C25  22014913.193   114637426.943        -989.877          39.027  
E03                                                                                                                                  25336496.109    99425852.828        -745.937          35.286  
E11                                                                                                                                  25365720.177    99540528.184        2400.339          31.631  
E12                                                                                                                                  23626658.005    92716079.969        1069.265          37.091  
E25                                                                  23311643.285   122503493.072        1205.422          37.748    23311643.585    91479891.315         900.173          36.671  
G06  24386060.482   128149609.493        2965.565          32.833  
G10  24879626.193                       -1677.151          21.516  
G12  21109865.544   110933083.139        2303.355          43.745  
G13  24633080.173   129447718.448       -3837.639          40.977  
G15  23115663.859   121473611.185       -3247.044          44.195  
G17  22504712.612   118263092.488       -1955.088          37.722  
G24  20199881.213   106151084.996         367.565          40.340    20199879.414    79268660.514         274.521          38.566  
G32  24906584.430   130885031.194        3270.508          24.850  
R01  21487074.008   114860712.069       -1354.264          30.084  
R02  23281236.535   124233113.414        2843.090          39.013  
R08  22609212.168   121071437.042       -3778.708          33.625  
R09  21517404.311   114901697.075       -2651.067          39.145  
R10  19468708.993   103779233.612        -164.670          44.291  
R11  21476351.331   114763041.951        2921.139          38.551  
R19  21547740.610                       -1932.813          25.557  
> 2019  5 20  8 10 12.0002123  0 27
C12  24864057.371   129473667.344       -2209.007          38.073  
C13  39153696.960   203883569.604        1772.632          33.561  
C20  25808853.003                         704.319          26.122  
C23  22628209.117   117831010.151        1752.133          39.525  
C24  26069731.201   135752011.399       -2736.704          28.409  
C25  22015136.538   114638573.311        -990.259          38.622  
E03                                                                                                                                  25336717.056    99426717.016        -746.543          36.019  
E11                                                                                                                                  25365137.681    99538245.741        2400.088          31.045  
E12                                                                                                                                  23626416.672    92715128.825        1068.788          37.224  
E25                                                                  23311440.925   122502445.587        1205.027          37.714    23311441.825    91479109.174         899.785          34.374  
G06  24385527.451   128146801.716        2965.319          33.260  
G10  24879977.550                       -1679.095          21.869  
G12  21109455.128   110930937.983        2302.698          44.124  
G13  24633838.648   129451713.883       -3837.893          41.061  
G15  23116307.513   121477016.239       -3247.512          46.066  
G17  22505113.134   118265205.668       -1955.639          39.005  
G19  21043644.688   110585202.5941       -452.417          29.317  
G24  20199839.242   106150875.788         366.750          41.587    20199838.643    79268504.309         273.850          38.353  
G25  24497654.327   128735988.7151       3502.962          23.900  
G32  24906002.233   130881918.800        3269.936          25.132  
R01  21487347.719   114862227.640       -1355.314          29.115  
R02  23280741.278   124230431.200        2842.188          38.698  
R08  22609953.555   121075376.870       -3779.290          33.706  
R09  21517930.747   114904508.693       -2651.530          38.596  
R10  19468775.547   103779558.726        -165.308          44.451  
R11  21475838.686   114760281.421        2920.730          38.144  
R19  21548124.344                       -1935.154          24.656  
> 2019  5 20  8 10 13.0002124  0 25
C12  24864512.456   129476032.834       -2209.380          38.621  
C13  39153387.874   203881953.230        1772.484          33.673  
C20  25808751.073   134392899.6591        701.299          26.746  
C23  22627903.029   117829414.441        1751.820          40.755  
C24  26070283.119                       -2738.324          27.438  
C25  22015356.586   114639720.057        -990.635          37.578  
E03                                                                                                                                  25336936.504    99427581.433        -746.772          36.772  
E11                                                                                                                                  25364556.083    99535963.447        2399.939          30.721  
E12                                                                                                                                  23626173.840    92714178.083        1068.387          36.962  
E25                                                                  23311242.163   122501398.310        1204.819          37.892    23311244.861    91478327.079         899.741          34.765  
G06  24384991.722   128143994.488        2964.770          33.648  
G12  21109046.811   110928793.285        2302.240          41.835  
G13  24634598.023   129455709.380       -3837.954          40.375  
G15  23116956.264   121480421.571       -3247.790          46.412  
G17  22505516.355   118267319.571       -1956.360          37.873  
G19  21043758.909   110585813.408        -453.273          29.902  
G24  20199801.468   106150667.140         366.190          41.904    20199799.670    79268348.457         273.496          38.990  
G25  24497012.771   128732643.159        3503.098          23.347  
R01  21487619.331   114863744.186       -1356.290          31.542  
R02  23280246.321   124227749.733        2841.442          38.464  
R08  22610676.954   121079316.626       -3779.219          30.511  
R09  21518441.293   114907320.610       -2651.830          37.866  
R10  19468833.407   103779884.368        -165.836          44.385  
R11  21475331.437   114757521.250        2920.371          38.039  
R19  21548526.366                       -1934.971          23.192  
> 2019  5 20  8 10 14.0002124  0 27
C12  24864938.162   129478242.682       -2209.848          38.107  
C13  39153049.708   203880181.059        1772.171          33.920  
C20  25808617.066   134392198.808         700.851          27.045  
C23  22627564.563   117827662.908        1751.534          39.960  
C24  26070797.862                       -2737.421          25.039  
C25  22015544.855   114640711.092        -991.035          38.786  
E03                                                                                                                                  25337125.673    99428328.634        -747.201          34.912  
E11                                                                                                                                  25363944.806    99533563.543        2399.904          31.028  
E12                                                                                                                                  23625901.928    92713110.083        1068.000          36.920  
E25                                                                  23311012.222   122500193.735        1204.575          36.928    23311014.920    91477427.508         899.571          36.877  
G06  24384423.615   128141029.842        2964.647          32.382    24384427.212    95689724.2091       2213.759          28.843  
G10  24880648.485                       -1674.206          21.553  
G12  21108607.015   110926491.455        2301.830          40.998  
G13  24635331.015   129459547.533       -3838.153          40.803  
G15  23117575.336   121483669.683       -3248.112          45.775  
G17  22505890.196   118269276.330       -1956.759          38.096  
G19  21043843.151   110586267.304        -453.895          27.956  
G24  20199728.619   106150301.507         365.633          42.590    20199731.017    79268075.446         273.011          39.750  
G25  24496347.232                        3502.245          24.315  
G32  24904781.778   130875537.4851       3269.225          26.079  
R01  21487873.854   114865101.260       -1357.074          31.079  
R02  23279707.294   124224908.945        2840.789          38.442  
R08  22611418.641   121083096.516       -3779.890          35.238  
R09  21518940.148   114909972.735       -2652.124          39.043  
R10  19468870.282   103780050.675        -166.307          45.173  
R11  21474800.205   114754601.153        2920.096          35.613  
R19  21548908.301                       -1933.871          23.517  
> 2019  5 20  8 10 15.0002125  0 27
C12  24865391.448   129480609.232       -2210.441          38.047  
C13  39152729.230   203878565.367        1771.802          32.584  
C20  25808512.139   134391654.950         699.968          27.387  
C23  22627258.475   117826067.959        1751.058          40.153  
C24  26071352.478                       -2735.816          24.475  
C25  22015763.704   114641858.794        -991.592          38.898  
E03                                                                                                                                  25337346.620    99429194.033        -747.754          34.590  
E11                                                                                                                                  25363364.108    99531281.467        2399.722          31.809  
E12                                                                                                                                  23625659.696    92712160.186        1067.542          37.163  
E25                                                                  23310814.059   122499147.139        1204.138          38.155    23310815.258    91476645.946         899.207          36.419  
G06  24383887.286   128138223.075        2964.308          31.614    24383892.682    95687628.291        2213.563          28.962  
G10  24880992.947                       -1678.563          21.423  
G12  21108199.897   110924347.825        2301.172          43.127  
G13  24636090.090   129463543.387       -3838.312          40.321  
G15  23118225.585   121487075.737       -3248.511          45.763  
G17  22506290.419   118271391.413       -1957.541          36.745  
G19  21043961.868   110586879.737        -454.891          27.658  
G24  20199691.445   106150094.144         364.905          41.721    20199691.145    79267920.594         272.497          40.041  
G25  24495714.070                        3501.769          24.906  
G32  24904188.789   130872426.135        3268.892          26.282  
R01  21488145.766   114866619.663       -1358.147          30.998  
R02  23279200.045   124222228.936        2839.983          38.773  
R08  22612141.740   121087037.459       -3780.405          34.771  
R09  21519460.288   114912785.371       -2652.549          38.841  
R10  19468929.640   103780377.449        -166.968          44.846  
R11  21474252.484   114751841.631        2919.722          35.578  
R19  21549300.730                       -1933.765          23.997  
> 2019  5 20  8 10 16.0002126  0 27
C12  24865844.434   129482976.183       -2210.840          37.783  
C13  39152426.139   203876949.694        1771.783          32.399  
C20  25808409.010   134391111.482         699.578          26.707  
C23  22626952.087   117824473.161        1750.908          40.780  
C24  26071923.583                       -2738.562          26.150  
C25  22015982.552   114643006.669        -991.766          38.462  
E03                                                                                                                                  25337567.567    99430059.768        -748.090          36.572  
E11                                                                                                                                  25362781.312    99528999.506        2399.606          31.656  
E12                                                                                                                                  23625417.464    92711210.595        1067.237          36.811  
E25                                                                  23310615.597   122498100.659        1204.022          38.484    23310615.896    91475864.509         899.082          35.179  
G06  24383360.851   128135416.676        2963.941          32.662    24383359.052    95685532.570        2213.367          28.333  
G10  24881348.201                       -1682.361          21.524  
G12  21107792.180   110922204.476        2300.891          44.245  
G13  24636850.064   129467539.270       -3838.341          40.149  
G15  23118873.437   121490482.010       -3248.731          45.511  
G17  22506686.145   118273506.919       -1957.964          35.103  
G19  21044079.987   110587492.888        -455.610          28.530  
G24  20199649.174   106149887.203         364.483          41.446    20199650.973    79267766.054         272.185          39.375  
G25  24495072.814   128722451.8121       3502.161          24.828  
G32  24903599.697   130869315.228        3268.449          26.334  
R01  21488436.565   114868138.971       -1359.051          31.126  
R02  23278696.694   124219549.486        2839.425          39.220  
R08  22612862.141   121090978.669       -3780.672          33.551  
R09  21519978.329   114915598.219       -2652.760          38.169  
R10  19468993.196   103780704.597        -167.341          44.835  
R11  21473734.743   114749082.113        2919.719          36.190  
R19  21549689.261                       -1935.486          23.541  
> 2019  5 20  8 10 17.0002126  0 27
C12  24866271.339   129485187.559       -2211.377          37.037  
C13  39152084.976   203875178.178        1771.516          33.359  
C20  25808274.403   134390412.597         698.885          27.516  
C23  22626613.322   117822722.696        1750.466          40.481  
C24  26072451.517   135766170.6521      -2737.722          27.912  
C25  22016169.623   114643998.964        -992.295          38.628  
E03                                                                                                                                  25337760.334    99430808.189        -748.421          34.557  
E11                                                                                                                                  25362170.934    99526600.024        2399.481          30.970  
E12                                                                                                                                  23625145.552    92710143.826        1066.769          36.925  
E25                                                                  23310386.555   122496896.987        1203.672          38.095    23310387.155    91474965.655         898.854          36.138  
G06  24382797.241   128132453.000        2963.676          32.810  
G10  24881666.880                       -1680.789          21.963  
G12  21107355.082   110919904.150        2300.326          44.066  
G13  24637580.658   129471377.769       -3838.499          40.011  
G15  23119493.108   121493731.134       -3249.125          45.920  
G17  22507061.186   118275465.429       -1958.511          35.902  
G19  21044162.130   110587949.209        -456.321          28.265  
G24  20199580.821   106149523.385         363.818          40.815    20199582.920    79267494.371         271.682          38.961  
G25  24494404.577   128718949.966        3501.846          24.859  
G32  24902974.929   130866047.183        3268.045          26.914  
R01  21488703.680   114869498.827       -1359.856          30.443  
R02  23278157.067   124216710.911        2838.574          39.082  
R08  22613577.746   121094759.836       -3781.168          34.073  
R09  21520472.087   114918251.434       -2653.215          37.379  
R10  19469021.077   103780872.531        -167.934          45.077  
R11  21473171.733   114746162.839        2919.273          36.411  
R19  21550049.911                       -1937.519          24.900  
> 2019  5 20  8 10 18.0002127  0 27
C12  24866725.824   129487555.321       -2211.652          37.479  
C13  39151774.091   203873562.959        1771.329          33.319  
C20  25808173.373   134389870.349         698.358          27.140  
C23  22626307.233   117821128.541        1750.265          39.318  
C24  26073006.733   135769064.297       -2737.536          27.896  
C25  22016388.471   114645147.616        -992.542          37.567  
E03                                                                                                                                  25337979.182    99431674.624        -748.790          36.026  
E11                                                                                                                                  25361589.337    99524318.234        2399.435          31.274  
E12                                                                                                                                  23624904.219    92709195.008        1066.463          36.972  
E25                                                                  23310189.292   122495850.998        1203.531          38.123    23310188.392    91474184.592         898.708          36.798  
G06  24382264.510   128129647.125        2963.417          33.021  
G10  24882015.539                       -1675.678          22.893  
G12  21106943.467   110917761.692        2300.000          43.594  
G13  24638342.131   129475373.878       -3838.566          40.631  
G15  23120141.259   121497137.984       -3249.308          45.604  
G17  22507468.304   118277581.927       -1958.956          36.846  
G19  21044282.946   110588564.037        -457.286          31.316  
G24  20199541.848   106149317.564         363.363          40.715    20199543.047    79267340.683         271.334          39.207  
G25  24493768.417   128715605.740        3501.768          24.910  
G32  24902388.235                        3267.943          25.972  
R01  21488993.579   114871019.811       -1360.728          31.850  
R02  23277663.609   124214032.903        2837.984          39.076  
R08  22614311.638   121098701.789       -3781.416          34.200  
R09  21520999.722   114921064.916       -2653.395          37.826  
R10  19469096.625   103781200.688        -168.351          44.992  
R11  21472656.989   114743403.819        2919.220          33.325  
R19  21550437.243   115280451.7281      -1938.507          25.107  
> 2019  5 20  8 10 19.0002128  0 27
C12  24867181.209   129489923.565       -2212.134          37.114  
C13  39151463.506   203871947.832        1771.237          32.594  
C20  25808069.345   134389328.650         697.809          26.067  
C23  22625999.646   117819534.633        1750.018          37.214  
C24  26073559.550   135771958.385       -2737.978          27.543  
C25  22016604.622   114646296.626        -992.901          37.335  
E03                                                                                                                                  25338200.729    99432541.324        -749.055          34.198  
E11                                                                                                                                  25361007.440    99522036.529        2399.350          31.378  
E12                                                                                                                                  23624662.886    92708246.542        1066.111          36.626  
E25                                                                  23309989.030   122494805.232        1203.308          36.453    23309989.330    91473403.674         898.562          36.738  
G06  24381732.078   128126841.415        2963.253          32.751  
G10  24882372.892                       -1678.137          22.094  
G12  21106540.546   110915619.660        2299.575          44.801  
G13  24639100.606   129479369.960       -3838.541          40.231  
G15  23120788.511   121500545.079       -3249.553          45.327  
G17  22507867.028   118279698.924       -1959.456          36.814  
G19  21044403.463   110589179.457        -457.878          31.846  
G24  20199499.577   106149112.326         362.780          40.094    20199503.475    79267187.394         270.933          39.247  
G25  24493134.356                        3501.777          24.653  
G32  24901799.743   130859826.9391       3267.456          24.350  
R01  21489276.284   114872541.669       -1361.603          30.769  
R02  23277157.859   124211355.589        2837.289          36.939  
R08  22615062.918   121102644.094       -3781.767          34.844  
R09  21521528.856   114923878.654       -2653.651          37.567  
R10  19469149.089   103781529.293        -168.799          44.775  
R11  21472138.648   114740645.122        2918.897          34.471  
R19  21550828.172                       -1937.629          24.775  
> 2019  5 20  8 10 20.0002128  0 26
C12  24867606.015   129492136.208       -2212.642          37.249  
C20  25807934.139                         696.662          25.808  
C23  22625663.879   117817784.916        1749.717          38.193  
C24  26074078.191                       -2737.393          26.198  
C25  22016797.688   114647289.888        -993.261          37.346  
E03                                                                                                                                  25338391.996    99433290.842        -749.517          35.698  
E11                                                                                                                                  25360395.563    99519637.246        2399.283          30.979  
E12                                                                                                                                  23624392.473    92707180.789        1065.753          36.719  
E25                                                                  23309763.287   122493602.165        1203.067          37.194    23309760.289    91472505.297         898.377          36.135  
G06  24381163.072   128123878.475        2962.939          33.438  
G10  24882687.674                       -1681.048          21.875  
G12  21106102.249   110913320.560        2299.100          44.822  
G13  24639830.900   129483208.665       -3838.704          40.278  
G15  23121407.882   121503794.988       -3249.909          45.293  
G17  22508236.672   118281659.002       -1960.078          35.856  
G19  21044491.901   110589638.230        -458.774          32.477  
G24  20199430.325   106148750.056         362.270          39.600    20199434.522    79266916.905         270.489          39.305  
G25  24492471.215                        3500.619          24.026  
G32  24901170.778   130856559.767        3267.172          24.813  
R01  21489535.604   114873904.058       -1362.388          31.165  
R02  23276635.620   124208519.070        2836.519          37.668  
R08  22615771.028   121106426.284       -3782.190          34.492  
R09  21522028.909   114926532.632       -2653.978          38.302  
R10  19469174.871   103781698.622        -169.329          44.434  
R11  21471593.025   114737726.544        2918.578          36.752  
R19  21551193.020   115284491.6351      -1940.234          26.330  
> 2019  5 20  8 10 21.0002129  0 27
C12  24868061.999   129494505.446       -2213.128          37.601  
C13  39150817.753   203868562.2901       1770.675          34.339  
C20  25807827.413                         695.848          24.441  
C23  22625360.489   117816191.723        1749.302          40.038  
C24  26074633.107   135777590.7161      -2738.144          26.295  
C25  22017020.434   114648439.754        -993.756          38.260  
E03                                                                                                                                  25338612.643    99434158.420        -749.933          35.649  
E11                                                                                                                                  25359813.966    99517355.803        2399.088          31.043  
E12                                                                                                                                  23624149.642    92706233.150        1065.284          36.725  
E25                                                                  23309562.126   122492557.022        1202.685          38.093    23309561.526    91471724.814         898.128          35.159  
G06  24380633.339   128121073.431        2962.586          32.549  
G10  24883032.435                       -1682.334          21.265  
G12  21105697.230   110911179.514        2298.588          44.439  
G13  24640591.773   129487205.102       -3838.895          40.373  
G15  23122053.935   121507202.771       -3250.241          45.094  
G17  22508641.392   118283777.189       -1960.645          36.321  
G19  21044605.823   110590255.261        -459.489          32.029  
G24  20199391.053   106148546.008         361.590          40.083    20199396.449    79266764.560         269.990          39.093  
G25  24491830.559   128705416.7001       3501.177          23.667  
G32  24900582.585   130853450.705        3266.604          25.227  
R01  21489821.006   114875427.785       -1363.471          30.606  
R02  23276129.871   124205843.340        2835.705          36.854  
R08  22616492.928   121110369.473       -3782.652          34.047  
R09  21522555.945   114929347.040       -2654.320          38.487  
R10  19469235.129   103782028.305        -169.877          44.311  
R11  21471062.093   114734968.485        2918.259          36.958  
R19  21551592.343   115286593.148       -1941.144          26.263  
> 2019  5 20  8 10 22.0002129  0 25
C12  24868484.706   129496718.022       -2212.576          37.865  
C13  39150473.891   203866790.770        1771.520          34.243  
C20  25807697.903                         694.720          24.439  
C23  22625024.422   117814441.687        1750.036          40.762  
C25  22017208.104   114649432.869        -993.115          37.514  
E03                                                                                                                                  25338803.911    99434907.990        -749.571          36.327  
E11                                                                                                                                  25359201.790    99514956.056        2399.747          30.749  
E12                                                                                                                                  23623878.030                        1064.060          37.043  
E25                                                                  23309332.785   122491353.514        1203.508          38.270    23309332.185    91470826.112         898.702          35.202  
G06  24380060.435   128118110.058        2963.373          32.217  
G12  21105258.633   110908880.371        2299.143          45.053  
G13  24641322.367   129491043.097       -3837.995          40.822  
G15  23122674.506   121510452.331       -3249.560          45.061  
G17  22509014.034   118285737.332       -1960.143          35.127  
G19  21044699.058   110590714.666        -459.404          33.081  
G24  20199321.800   106148184.051         361.956          40.791    20199326.897    79266494.219         270.341          39.108  
G25  24491158.424                        3501.664          22.468  
G32  24899960.216   130850183.385        3267.320          25.444  
R01  21490081.526   114876791.047       -1363.261          30.987  
R02  23275600.437   124203007.295        2836.045          36.801  
R08  22617198.040   121114151.363       -3781.890          33.265  
R09  21523060.795   114932000.705       -2653.666          39.578  
R10  19469255.815   103782197.667        -169.362          43.878  
R11  21470536.557   114732049.389        2919.096          37.903  
R19  21551968.283   115288534.143       -1940.996          26.380  
> 2019  5 20  8 10 23.0002130  0 24
C12  24868940.691   129499085.661       -2211.529          37.181  
C20  25807595.973   134386852.4951        697.808          25.070  
C23  22624716.535   117812846.563        1751.234          39.896  
C25  22017428.451   114650580.954        -991.976          37.448  
E03                                                                                                                                  25339025.458    99435774.442        -748.806          36.131  
E11                                                                                                                                  25358622.591    99512672.940        2400.761          30.777  
E12                                                                                                                                  23623636.397    92704218.7331       1066.271          37.001  
E25                                                                  23309135.221   122490306.305        1204.752          37.989    23309133.123    91470044.106         899.651          35.511  
G06  24379525.606   128115303.082        2964.517          33.543    24379533.400    95670512.7231       2213.696          29.977  
G12  21104851.515   110906737.671        2300.242          44.757  
G13  24642082.341   129495037.167       -3836.528          40.427  
G15  23123323.556   121513858.187       -3248.314          45.063  
G17  22509415.156   118287854.001       -1959.127          34.610  
G19  21044817.776   110591330.890        -458.682          34.105  
G24  20199281.029   106147978.634         362.959          39.540    20199288.224    79266340.820         271.044          39.224  
G25  24490522.564                        3507.921          22.464  
G32  24899361.531   130847072.328        3268.599          25.053  
R01  21490362.432   114878313.968       -1362.665          33.349  
R02  23275099.184   124200330.310        2836.960          38.410  
R08  22617931.032   121118092.684       -3780.784          32.674  
R09  21523589.329   114934813.199       -2652.406          38.851  
R10  19469317.572   103782525.793        -168.320          43.421  
R11  21470014.318   114729289.254        2920.335          37.593  
R19  21552348.719                       -1940.240          26.460  
> 2019  5 20  8 10 24.0002131  0 24
C12  24869395.176   129501453.090       -2211.320          36.951  
C20  25807490.746   134386310.642         697.962          26.146  
C23  22624409.547   117811251.097        1751.575          38.918  
C25  22017652.396   114651728.691        -991.627          37.894  
E03                                                                                                                                  25339244.906    99436640.709        -748.622          35.653  
E11                                                                                                                                  25358038.895    99510389.363        2401.221          30.950  
E12                                                                                                                                  23623394.464    92703269.796        1066.582          36.897  
E25                                                                  23308936.759   122489258.666        1205.180          38.369    23308933.461    91469261.755         899.995          35.340  
G06  24378995.872   128112495.717        2964.907          32.872  
G12  21104443.498   110904594.767        2300.445          44.982  
G13  24642840.217   129499030.680       -3835.971          40.014  
G15  23123970.209   121517263.669       -3247.940          45.101  
G17  22509822.574   118289970.580       -1959.036          36.477  
G19  21044931.097   110591947.115        -458.683          34.433  
G24  20199241.456   106147773.085         363.091          38.929    20199249.850    79266187.357         271.108          39.276  
G25  24489883.706                        3506.603          22.264  
G32  24898770.940   130843961.061        3268.809          25.924  
R01  21490640.939   114879837.012       -1362.788          33.443  
R02  23274599.730   124197653.388        2836.898          39.630  
R08  22618673.019   121122033.627       -3780.405          32.750  
R09  21524128.356   114937625.299       -2652.013          39.597  
R10  19469383.226   103782853.704        -168.104          43.361  
R11  21469495.078   114726528.614        2920.839          37.863  
R19  21552756.437   115292735.8101      -1940.568          26.061  
> 2019  5 20  8 10 25.0002131  0 24
C12  24869819.083   129503665.212       -2212.122          37.494  
C20  25807353.441   134385613.661         696.981          27.597  
C23  22624072.580   117809500.140        1750.958          38.094  
C25  22017842.465   114652721.090        -992.399          38.126  
E03                                                                                                                                  25339435.874    99437390.059        -749.350          34.916  
E11                                                                                                                                  25357427.618    99507988.572        2400.791          31.145  
E12                                                                                                                                  23623122.852    92702203.866        1065.929          37.189  
E25                                                                  23308706.218   122488054.078        1204.588          38.442    23308704.420    91468362.220         899.536          35.550  
G06  24378420.870   128109531.373        2964.345          31.478  
G12  21104006.700   110902295.069        2299.698          45.087  
G13  24643571.411   129502867.118       -3836.438          40.363  
G15  23124589.880   121520512.233       -3248.564          45.121  
G17  22510197.015   118291930.416       -1959.836          37.558  
G19  21045024.333   110592407.034        -459.919          34.850  
G24  20199177.301   106147410.900         362.184          39.372    20199179.399    79265916.859         270.498          39.148  
G25  24489219.066                        3501.129          20.941  
G32  24898152.468   130840692.923        3268.137          26.178  
R01  21490886.769   114881201.144       -1364.132          32.222  
R02  23274063.401   124194817.464        2835.924          38.530  
R08  22619371.535   121125814.854       -3781.227          32.859  
R09  21524622.414   114940278.005       -2652.706          40.662  
R10  19469418.002   103783022.674        -168.970          43.538  
R11  21468955.152   114723608.331        2920.283          36.019  
R19  21553129.679   115294677.525       -1941.716          25.818  
> 2019  5 20  8 10 26.0002132  0 25
C12  24870274.767   129506035.185       -2213.863          37.157  
C20  25807252.711   134385074.801         694.969          28.554  
C23  22623770.090   117807906.910        1749.339          40.688  
C25  22018066.110   114653871.260        -994.061          38.155  
E03                                                                                                                                  25339657.420    99438258.408        -750.704          35.380  
E11                                                                                                                                  25356846.021    99505706.438        2399.779          31.018  
E12                                                                                                                                  23622881.519    92701256.984        1064.528          36.745  
E25                                                                  23308507.756   122487008.605        1203.015          39.141    23308505.657    91467581.509         898.355          35.859  
G06  24377897.133   128106726.141        2962.774          32.656  
G10  24884713.371                       -1679.696          20.825  
G12  21103599.882   110900154.722        2297.888          44.930  
G13  24644330.785   129506862.494       -3837.833          39.960  
G15  23125237.431   121523920.001       -3250.226          44.828  
G17  22510603.234   118294049.717       -1961.760          38.222  
G19  21045135.556   110593026.580        -462.004          34.325  
G24  20199134.730   106147208.206         360.236          39.741    20199141.026    79265765.505         268.999          39.070  
G25  24488588.603                        3500.792          19.180    24488539.437                        2615.335          18.568  
G32  24897554.682   130837584.074        3266.391          26.881  
R01  21491182.964   114882727.673       -1366.272          32.260  
R02  23273564.547   124192143.625        2833.813          38.495  
R08  22620106.626   121129758.355       -3782.963          32.516  
R09  21525154.845   114943092.470       -2654.377          40.800  
R10  19469487.854   103783353.289        -170.809          43.511  
R11  21468435.311   114720850.000        2918.531          33.666  
R19  21553517.011   115296781.996       -1944.101          25.643  
> 2019  5 20  8 10 27.0002133  0 25
C12  24870730.452   129508406.229       -2214.933          37.244  
C20  25807150.481   134384537.056         693.855          28.169  
C23  22623464.901   117806314.584        1748.436          41.310  
C25  22018289.455   114655022.418        -995.048          38.880  
E03                                                                                                                                  25339878.667    99439127.530        -751.477          35.765  
E11                                                                                                                                  25356264.423    99503424.928        2399.155          30.701  
E12                                                                                                                                  23622640.486    92700310.908        1063.721          37.065  
E25                                                                  23308311.092   122485964.006        1202.140          38.943    23308306.295    91466801.433         897.721          36.009  
G06  24377355.408   128103921.976        2961.707          32.444  
G10  24885056.334                       -1680.395          19.781  
G12  21103193.063   110898015.436        2296.828          45.349  
G13  24645092.857   129510858.587       -3838.551          39.939  
G15  23125885.583   121527328.648       -3251.105          45.120  
G17  22511010.052   118296170.153       -1962.893          39.646  
G19  21045256.072   110593647.472        -463.350          33.425  
G24  20199094.258   106147006.669         359.079          39.251    20199102.652    79265615.035         268.115          39.011  
G25  24487956.041                        3501.907          17.433    24487906.575                        2616.584          19.350  
G32  24896963.791   130834476.101        3265.515          27.649  
R01  21491460.571   114884255.687       -1367.758          32.243  
R02  23273058.797   124189471.115        2832.486          38.505  
R08  22620838.719   121133702.816       -3783.923          32.597  
R09  21525689.375   114945907.822       -2655.264          40.965  
R10  19469542.116   103783685.005        -171.910          43.375  
R11  21467937.656   114718092.404        2917.796          34.013  
R19  21553902.844   115298887.783       -1945.419          26.735  
> 2019  5 20  8 10 28.0002133  0 25
C12  24871155.557   129510621.540       -2215.312          37.252  
C20  25807015.275   134383843.652         693.405          28.952  
C23  22623128.834   117804566.337        1748.247          41.295  
C25  22018478.325   114656017.721        -995.303          38.570  
E03                                                                                                                                  25340070.534    99439879.346        -751.816          35.414  
E11                                                                                                                                  25355653.446    99501025.808        2399.120          30.811  
E12                                                                                                                                  23622369.474    92699247.527        1063.380          36.904  
E25                                                                  23308081.151   122484761.953        1202.054          39.631    23308078.153    91465903.821         897.612          36.707  
G06  24376800.492   128100960.331        2961.645          32.695    24376799.593    95659802.2001       2211.582          28.435  
G10  24885372.315                       -1686.556          20.012  
G12  21102756.566   110895718.908        2296.528          45.133  
G13  24645824.051   129514697.107       -3838.520          40.343  
G15  23126502.555   121530579.935       -3251.287          44.840  
G17  22511387.491   118298133.449       -1963.297          39.405  
G19  21045338.815   110594111.598        -464.126          32.969  
G24  20199026.205   106146648.072         358.597          38.848    20199034.000    79265347.242         267.793          39.464  
G25  24487276.112                        3508.960          15.980    24487238.338                        2616.367          20.384  
G32  24896345.319   130831210.802        3265.299          27.417  
R01  21491713.896   114885624.300       -1368.613          31.967  
R02  23272525.166   124186639.243        2831.872          38.259  
R08  22621539.034   121137486.999       -3784.183          33.253  
R09  21526187.031   114948563.292       -2655.470          41.250  
R10  19469580.490   103783857.267        -172.262          43.734  
R11  21467392.334   114715174.807        2917.596          35.093  
R19  21554266.192   115300833.992       -1946.209          26.392  
> 2019  5 20  8 10 29.0002134  0 24
C12  24871609.443   129512993.382       -2215.732          37.376  
C20  25806911.247   134383306.916         692.846          29.053  
C23  22622822.746   117802974.479        1747.967          41.527  
C25  22018702.869   114657169.493        -995.663          38.558  
E11                                                                                                                                  25355071.849    99498744.378        2399.074          30.911  
E12                                                                                                                                  23622127.841    92698302.147        1063.026          36.942  
E25                                                                  23307882.689   122483717.752        1201.742          39.496    23307879.391    91465124.024         897.443          35.467  
G06  24376260.866   128098156.517        2961.356          32.781    24376266.262    95657708.412        2211.433          28.105  
G10  24885704.185                       -1687.099          18.426  
G12  21102348.548   110893580.403        2296.047          45.058  
G13  24646583.425   129518693.307       -3838.658          40.749  
G15  23127151.306   121533989.084       -3251.607          44.705  
G17  22511791.011   118300254.831       -1963.840          39.553  
G19  21045460.531   110594734.016        -464.875          32.547  
G24  20198990.830   106146447.563         358.050          39.439    20198996.226    79265197.511         267.376          39.610  
G25  24486635.155                        3505.748          14.967    24486602.478                        2613.018          19.040  
G32  24895753.828   130828103.490        3264.854          27.770  
R01  21491998.099   114887154.034       -1369.477          29.647  
R02  23272029.010   124183968.146        2831.071          38.614  
R08  22622281.321   121141432.078       -3784.542          32.869  
R09  21526728.456   114951379.193       -2655.813          40.870  
R10  19469633.553   103784189.854        -172.780          43.208  
R11  21466859.602   114712417.642        2917.366          36.670  
